{
"29": {
"district": "московский",
"vk_id": 29,
"longitude": 30.324986,
"type": "лицей",
"latitude": 59.862051,
"name": "366",
"use": 77.9
},
"21136": {
"district": "московский",
"vk_id": 21136,
"longitude": 30.3260958,
"type": "гимназия",
"latitude": 59.8489174,
"name": "526",
"use": 69.8
},
"12537": {
"district": "московский",
"vk_id": 12537,
"longitude": 30.341493,
"type": "гимназия",
"latitude": 59.8572052,
"name": "524",
"use": 69.9
},
"2286": {
"district": "московский",
"vk_id": 2286,
"longitude": 30.344845,
"type": "гимназия",
"latitude": 59.860521,
"name": "525",
"use": 67.3
},
"865": {
"district": "московский",
"vk_id": 865,
"longitude": 30.3223853,
"type": "лицей",
"latitude": 59.893165,
"name": "373",
"use": 63
},
"863": {
"district": "московский",
"vk_id": 863,
"longitude": 30.3295186,
"type": null,
"latitude": 59.8763981,
"name": "371",
"use": 63.2
},
"21871": {
"district": "московский",
"vk_id": 21871,
"longitude": 30.314273,
"type": "английский",
"latitude": 59.873653,
"name": "1",
"use": 61.2
},
"126": {
"district": "московский",
"vk_id": 126,
"longitude": 30.3125423,
"type": null,
"latitude": 59.8501285,
"name": "643",
"use": 57.8
},
"12103": {
"district": "московский",
"vk_id": 12103,
"longitude": 30.345082,
"type": "немецкий",
"latitude": 59.836677,
"name": "356",
"use": 58.5
},
"15442": {
"district": "московский",
"vk_id": 15442,
"longitude": 30.3224911,
"type": "частная",
"latitude": 59.8876841,
"name": "РИД",
"use": 61.1
},
"1041": {
"district": "московский",
"vk_id": 1041,
"longitude": 30.3181893,
"type": null,
"latitude": 59.8463434,
"name": "489",
"use": 57.9
},
"1634": {
"district": "московский",
"vk_id": 1634,
"longitude": 30.29464,
"type": "английский",
"latitude": 59.855038,
"name": "510",
"use": 58.3
},
"284": {
"district": "московский",
"vk_id": 284,
"longitude": 30.3130872,
"type": "английский",
"latitude": 59.8380111,
"name": "544",
"use": 56
},
"67331": {
"district": "московский",
"vk_id": 67331,
"longitude": 30.3609458,
"type": "французский",
"latitude": 59.8470862,
"name": "351",
"use": 53
},
"111": {
"district": "московский",
"vk_id": 111,
"longitude": 30.314332,
"type": null,
"latitude": 59.8707008,
"name": "358",
"use": 59.9
},
"2436": {
"district": "московский",
"vk_id": 2436,
"longitude": 30.3326847,
"type": null,
"latitude": 59.862214,
"name": "507",
"use": 57.1
},
"2829": {
"district": "московский",
"vk_id": 2829,
"longitude": 30.332759,
"type": "французский",
"latitude": 59.8541,
"name": "485",
"use": 53.7
},
"22752": {
"district": "московский",
"vk_id": 22752,
"longitude": 30.352515,
"type": null,
"latitude": 59.861933,
"name": "536",
"use": 55.6
},
"319": {
"district": "московский",
"vk_id": 319,
"longitude": 30.292529,
"type": null,
"latitude": 59.812136,
"name": "354",
"use": 55
},
"74807": {
"district": "московский",
"vk_id": 74807,
"longitude": 30.365092,
"type": null,
"latitude": 59.8408462,
"name": "372",
"use": 55
},
"1671536": {
"district": "московский",
"vk_id": 1671536,
"longitude": 30.3199375,
"type": "частная",
"latitude": 59.9044697,
"name": "Северная Венеция",
"use": 55.4
},
"755": {
"district": "московский",
"vk_id": 755,
"longitude": 30.311578,
"type": null,
"latitude": 59.854746,
"name": "496",
"use": 54.4
},
"14879": {
"district": "московский",
"vk_id": 14879,
"longitude": 30.332438,
"type": "частная",
"latitude": 59.8393895,
"name": "Студиум",
"use": 56.7
},
"2360": {
"district": "московский",
"vk_id": 2360,
"longitude": 30.3166,
"type": null,
"latitude": 59.8603229,
"name": "594",
"use": 55.6
},
"521": {
"district": "московский",
"vk_id": 521,
"longitude": 30.341449,
"type": null,
"latitude": 59.835468,
"name": "519",
"use": 52.7
},
"14484": {
"district": "московский",
"vk_id": 14484,
"longitude": 30.3116597,
"type": null,
"latitude": 59.8614384,
"name": "495",
"use": 53.2
},
"17682": {
"district": "московский",
"vk_id": 17682,
"longitude": 30.353964,
"type": null,
"latitude": 59.858908,
"name": "543",
"use": 47.2
},
"2205": {
"district": "московский",
"vk_id": 2205,
"longitude": 30.32693,
"type": "искусство",
"latitude": 59.842291,
"name": "508",
"use": 55.7
},
"392": {
"district": "московский",
"vk_id": 392,
"longitude": 30.305555,
"type": null,
"latitude": 59.848361,
"name": "537",
"use": 51.1
},
"813": {
"district": "московский",
"vk_id": 813,
"longitude": 30.36673,
"type": null,
"latitude": 59.838066,
"name": "362",
"use": 51.3
},
"70": {
"district": "московский",
"vk_id": 70,
"longitude": 30.325247,
"type": null,
"latitude": 59.8762392,
"name": "355",
"use": 53.8
},
"805": {
"district": "московский",
"vk_id": 805,
"longitude": 30.3351426,
"type": "кадетские",
"latitude": 59.8468473,
"name": "484",
"use": 50.1
},
"18067": {
"district": "московский",
"vk_id": 18067,
"longitude": 30.335972,
"type": null,
"latitude": 59.769057,
"name": "353",
"use": 43.6
},
"3451": {
"district": "московский",
"vk_id": 3451,
"longitude": 30.319737,
"type": "кадетские",
"latitude": 59.900979,
"name": "374",
"use": 41.3
},
"969864": {
"district": "адмиралтейский",
"vk_id": 969864,
"longitude": 30.3154868,
"type": "гимназия",
"latitude": 59.9302456,
"name": "Вторая гимназия",
"use": 67.1
},
"62": {
"district": "адмиралтейский",
"vk_id": 62,
"longitude": 30.29197,
"type": "гимназия",
"latitude": 59.910848,
"name": "278",
"use": 60.6
},
"538": {
"district": "адмиралтейский",
"vk_id": 538,
"longitude": 30.3226353,
"type": null,
"latitude": 59.9124634,
"name": "307",
"use": 62.8
},
"874": {
"district": "адмиралтейский",
"vk_id": 874,
"longitude": 30.3101432,
"type": "химия",
"latitude": 59.914919,
"name": "281",
"use": 62.9
},
"21907": {
"district": "адмиралтейский",
"vk_id": 21907,
"longitude": 30.2793815,
"type": "частная",
"latitude": 59.9196097,
"name": "Дипломат",
"use": 59.9
},
"25": {
"district": "адмиралтейский",
"vk_id": 25,
"longitude": 30.314735,
"type": null,
"latitude": 59.910932,
"name": "564",
"use": 62.5
},
"449": {
"district": "адмиралтейский",
"vk_id": 449,
"longitude": 30.325866,
"type": "английский",
"latitude": 59.916231,
"name": "306",
"use": 59.5
},
"63": {
"district": "адмиралтейский",
"vk_id": 63,
"longitude": 30.304827,
"type": "гимназия",
"latitude": 59.914588,
"name": "272",
"use": 59.3
},
"180": {
"district": "адмиралтейский",
"vk_id": 180,
"longitude": 30.289385,
"type": "английский",
"latitude": 59.930825,
"name": "238",
"use": 62.6
},
"21972": {
"district": "адмиралтейский",
"vk_id": 21972,
"longitude": 30.2809227,
"type": "частная",
"latitude": 59.9209023,
"name": "ШНИ",
"use": 55.2
},
"3982": {
"district": "адмиралтейский",
"vk_id": 3982,
"longitude": 30.2970804,
"type": null,
"latitude": 59.9221044,
"name": "232",
"use": 52.9
},
"28": {
"district": "адмиралтейский",
"vk_id": 28,
"longitude": 30.2862406,
"type": null,
"latitude": 59.9189437,
"name": "234",
"use": 62.5
},
"11590": {
"district": "адмиралтейский",
"vk_id": 11590,
"longitude": 30.33161,
"type": null,
"latitude": 59.932302,
"name": "Суворовское военное училище",
"use": 56.3
},
"337": {
"district": "адмиралтейский",
"vk_id": 337,
"longitude": 30.309301,
"type": "французский",
"latitude": 59.913217,
"name": "266",
"use": 67.2
},
"1739": {
"district": "адмиралтейский",
"vk_id": 1739,
"longitude": 30.316139,
"type": null,
"latitude": 59.928756,
"name": "243",
"use": 52.8
},
"529": {
"district": "адмиралтейский",
"vk_id": 529,
"longitude": 30.302003,
"type": null,
"latitude": 59.913409,
"name": "286",
"use": 61.3
},
"16869": {
"district": "адмиралтейский",
"vk_id": 16869,
"longitude": 30.310307,
"type": null,
"latitude": 59.923031,
"name": "229",
"use": 53.3
},
"393": {
"district": "адмиралтейский",
"vk_id": 393,
"longitude": 30.3091449,
"type": null,
"latitude": 59.92416,
"name": "241",
"use": 59.8
},
"9951": {
"district": "адмиралтейский",
"vk_id": 9951,
"longitude": 30.356499,
"type": "частная",
"latitude": 59.939718,
"name": "Экспресс",
"use": 52
},
"176": {
"district": "адмиралтейский",
"vk_id": 176,
"longitude": 30.298021,
"type": null,
"latitude": 59.9119409,
"name": "280",
"use": 58.9
},
"279": {
"district": "адмиралтейский",
"vk_id": 279,
"longitude": 30.3088878,
"type": null,
"latitude": 59.9389426,
"name": "225",
"use": 54.2
},
"16146": {
"district": "адмиралтейский",
"vk_id": 16146,
"longitude": 30.3085796,
"type": null,
"latitude": 59.9260975,
"name": "256",
"use": 55.4
},
"1455": {
"district": "адмиралтейский",
"vk_id": 1455,
"longitude": 30.3224639,
"type": null,
"latitude": 59.9178658,
"name": "267",
"use": 52.1
},
"12140": {
"district": "адмиралтейский",
"vk_id": 12140,
"longitude": 30.330055,
"type": null,
"latitude": 59.924171,
"name": "Школа театра, телевидения и шоу-бизнеса",
"use": 52.6
},
"565": {
"district": "адмиралтейский",
"vk_id": 565,
"longitude": 30.3048509,
"type": null,
"latitude": 59.9296539,
"name": "255",
"use": 57.6
},
"136": {
"district": "адмиралтейский",
"vk_id": 136,
"longitude": 30.2936575,
"type": null,
"latitude": 59.9268441,
"name": "259",
"use": 48.9
},
"74445": {
"district": "адмиралтейский",
"vk_id": 74445,
"longitude": 30.2950821,
"type": null,
"latitude": 59.9193819,
"name": "260",
"use": 53.4
},
"14417": {
"district": "адмиралтейский",
"vk_id": 14417,
"longitude": 30.28071,
"type": "искусство",
"latitude": 59.926245,
"name": "235",
"use": 49.5
},
"6915": {
"district": "адмиралтейский",
"vk_id": 6915,
"longitude": 30.326127,
"type": null,
"latitude": 59.912123,
"name": "317",
"use": 48.6
},
"430": {
"district": "адмиралтейский",
"vk_id": 430,
"longitude": 30.2861181,
"type": null,
"latitude": 59.9222972,
"name": "245",
"use": 44.4
},
"3688": {
"district": "адмиралтейский",
"vk_id": 3688,
"longitude": 30.3034661,
"type": "частная",
"latitude": 59.926418,
"name": "Логос",
"use": 47.1
},
"5395": {
"district": "адмиралтейский",
"vk_id": 5395,
"longitude": 30.270179,
"type": null,
"latitude": 59.911966,
"name": "288",
"use": 50.6
},
"2959": {
"district": "адмиралтейский",
"vk_id": 2959,
"longitude": 30.2707432,
"type": null,
"latitude": 59.904512,
"name": "287",
"use": 41.5
},
"9290": {
"district": "василеостровский",
"vk_id": 9290,
"longitude": 30.2780414,
"type": "лицей",
"latitude": 59.9432871,
"name": "30",
"use": 75.5
},
"1": {
"district": "василеостровский",
"vk_id": 1,
"longitude": 30.2359629,
"type": "гимназия",
"latitude": 59.9523028,
"name": "Академическая гимназия СПбГУ",
"use": 71
},
"21035": {
"district": "василеостровский",
"vk_id": 21035,
"longitude": 30.2511978,
"type": "французский",
"latitude": 59.9295923,
"name": "4 (Кусто)",
"use": 65.9
},
"22084": {
"district": "василеостровский",
"vk_id": 22084,
"longitude": 30.2821022,
"type": "гимназия",
"latitude": 59.9439481,
"name": "24 (Крылова)",
"use": 62.4
},
"1088": {
"district": "василеостровский",
"vk_id": 1088,
"longitude": 30.2287853,
"type": "гимназия",
"latitude": 59.9536566,
"name": "586",
"use": 63
},
"643": {
"district": "василеостровский",
"vk_id": 643,
"longitude": 30.2468258,
"type": "математика",
"latitude": 59.9534367,
"name": "18",
"use": 68.7
},
"237": {
"district": "василеостровский",
"vk_id": 237,
"longitude": 30.221196,
"type": "английский",
"latitude": 59.944625,
"name": "12",
"use": 62.4
},
"14889": {
"district": "василеостровский",
"vk_id": 14889,
"longitude": 30.218439,
"type": "английский",
"latitude": 59.957337,
"name": "31",
"use": 63.9
},
"14910": {
"district": "василеостровский",
"vk_id": 14910,
"longitude": 30.263969,
"type": "гимназия",
"latitude": 59.941698,
"name": "11",
"use": 58.8
},
"792": {
"district": "василеостровский",
"vk_id": 792,
"longitude": 30.282028,
"type": "иностранные языки",
"latitude": 59.936852,
"name": "700",
"use": 58.9
},
"21764": {
"district": "василеостровский",
"vk_id": 21764,
"longitude": 30.250434,
"type": "искусство",
"latitude": 59.932684,
"name": "Художественный лицей имени Иогансона",
"use": 58.5
},
"1078": {
"district": "василеостровский",
"vk_id": 1078,
"longitude": 30.2673018,
"type": "французский",
"latitude": 59.9445271,
"name": "29",
"use": 60
},
"14890": {
"district": "василеостровский",
"vk_id": 14890,
"longitude": 30.227612,
"type": "химия",
"latitude": 59.958637,
"name": "10",
"use": 62.3
},
"426": {
"district": "василеостровский",
"vk_id": 426,
"longitude": 30.211403,
"type": "гимназия",
"latitude": 59.941193,
"name": "642 (Земля и вселенная)",
"use": 58.9
},
"554": {
"district": "василеостровский",
"vk_id": 554,
"longitude": 30.2252126,
"type": null,
"latitude": 59.953243,
"name": "16",
"use": 57.4
},
"21643": {
"district": "василеостровский",
"vk_id": 21643,
"longitude": 30.2827456,
"type": "гимназия",
"latitude": 59.9457896,
"name": "32",
"use": 55.8
},
"14086": {
"district": "василеостровский",
"vk_id": 14086,
"longitude": 30.24915,
"type": "частная",
"latitude": 59.949137,
"name": "Центр Искусства Воспитания (Вальдорфская)",
"use": 53.1
},
"696": {
"district": "василеостровский",
"vk_id": 696,
"longitude": 30.2901328,
"type": "английский",
"latitude": 59.9424731,
"name": "35",
"use": 54.4
},
"9499": {
"district": "василеостровский",
"vk_id": 9499,
"longitude": 30.2794548,
"type": "частная",
"latitude": 59.9431982,
"name": "Ювента",
"use": 53.8
},
"21504": {
"district": "василеостровский",
"vk_id": 21504,
"longitude": 30.2815862,
"type": "иностранные языки",
"latitude": 59.9355877,
"name": "27",
"use": 53.3
},
"574": {
"district": "василеостровский",
"vk_id": 574,
"longitude": 30.238473,
"type": null,
"latitude": 59.940879,
"name": "15",
"use": 55.2
},
"26210": {
"district": "василеостровский",
"vk_id": 26210,
"longitude": 30.224413,
"type": null,
"latitude": 59.944164,
"name": "2 (наличная улица)",
"use": 55.8
},
"150": {
"district": "василеостровский",
"vk_id": 150,
"longitude": 30.227802,
"type": "французский",
"latitude": 59.952463,
"name": "9",
"use": 50.3
},
"2944": {
"district": "василеостровский",
"vk_id": 2944,
"longitude": 30.26489,
"type": null,
"latitude": 59.937044,
"name": "17",
"use": 52.8
},
"7247": {
"district": "василеостровский",
"vk_id": 7247,
"longitude": 30.2845271,
"type": null,
"latitude": 59.9405532,
"name": "21",
"use": 53.9
},
"48": {
"district": "василеостровский",
"vk_id": 48,
"longitude": 30.275049,
"type": null,
"latitude": 59.945267,
"name": "28",
"use": 51.4
},
"8241": {
"district": "василеостровский",
"vk_id": 8241,
"longitude": 30.2723894,
"type": null,
"latitude": 59.9393123,
"name": "5",
"use": 49.4
},
"2825": {
"district": "василеостровский",
"vk_id": 2825,
"longitude": 30.2361966,
"type": null,
"latitude": 59.940183,
"name": "19",
"use": 51.7
},
"2312": {
"district": "василеостровский",
"vk_id": 2312,
"longitude": 30.2473435,
"type": null,
"latitude": 59.9299176,
"name": "6",
"use": 46.4
},
"2663": {
"district": "василеостровский",
"vk_id": 2663,
"longitude": 30.2415568,
"type": "спортивная",
"latitude": 59.9515102,
"name": "576",
"use": 49
},
"1912": {
"district": "василеостровский",
"vk_id": 1912,
"longitude": 30.2638762,
"type": null,
"latitude": 59.9447676,
"name": "575 (ЦО)",
"use": 47.6
},
"22028": {
"district": "выборгский",
"vk_id": 22028,
"longitude": 30.3272194,
"type": "гимназия",
"latitude": 60.0392419,
"name": "73 (Ломоносовская)",
"use": 69.1
},
"7975": {
"district": "выборгский",
"vk_id": 7975,
"longitude": 30.341193,
"type": "частная",
"latitude": 59.968668,
"name": "Медицинская гимназия с православным",
"use": 68.4
},
"23758": {
"district": "выборгский",
"vk_id": 23758,
"longitude": 30.3517002,
"type": "гимназия",
"latitude": 59.9986911,
"name": "74",
"use": 65.8
},
"1671463": {
"district": "выборгский",
"vk_id": 1671463,
"longitude": 30.372554,
"type": "лицей",
"latitude": 60.0072725,
"name": "Естественно-научный лицей СПбГПУ",
"use": 67.5
},
"356": {
"district": "выборгский",
"vk_id": 356,
"longitude": 30.3515134,
"type": "немецкий",
"latitude": 60.0515695,
"name": "605",
"use": 66.1
},
"358": {
"district": "выборгский",
"vk_id": 358,
"longitude": 30.3541606,
"type": "гимназия",
"latitude": 60.0444252,
"name": "61",
"use": 64.1
},
"250": {
"district": "выборгский",
"vk_id": 250,
"longitude": 30.330018,
"type": "лицей",
"latitude": 60.0561509,
"name": "488",
"use": 63.4
},
"287": {
"district": "выборгский",
"vk_id": 287,
"longitude": 30.3338846,
"type": "гимназия",
"latitude": 60.0171469,
"name": "92",
"use": 64.9
},
"502": {
"district": "выборгский",
"vk_id": 502,
"longitude": 30.3463061,
"type": "английский",
"latitude": 60.0068468,
"name": "534",
"use": 64.5
},
"16": {
"district": "выборгский",
"vk_id": 16,
"longitude": 30.340609,
"type": "гимназия",
"latitude": 60.005339,
"name": "105",
"use": 59.6
},
"9113": {
"district": "выборгский",
"vk_id": 9113,
"longitude": 30.333752,
"type": "частная",
"latitude": 60.000599,
"name": "Паскаль Лицей",
"use": 62.5
},
"76723": {
"district": "выборгский",
"vk_id": 76723,
"longitude": 30.320725,
"type": "право",
"latitude": 60.0423209,
"name": "622",
"use": 63.1
},
"34": {
"district": "выборгский",
"vk_id": 34,
"longitude": 30.3508016,
"type": "гимназия",
"latitude": 60.0108719,
"name": "652",
"use": 61.7
},
"425": {
"district": "выборгский",
"vk_id": 425,
"longitude": 30.3599967,
"type": "иностранные языки",
"latitude": 60.0524188,
"name": "83",
"use": 60.1
},
"8119": {
"district": "выборгский",
"vk_id": 8119,
"longitude": 30.3360334,
"type": "лицей",
"latitude": 60.0347472,
"name": "101",
"use": 59.7
},
"17548": {
"district": "выборгский",
"vk_id": 17548,
"longitude": 30.3352296,
"type": "лицей",
"latitude": 60.0464155,
"name": "623 лицей имени павлова",
"use": 65.6
},
"18260": {
"district": "выборгский",
"vk_id": 18260,
"longitude": 30.324567,
"type": "английский",
"latitude": 60.049783,
"name": "457",
"use": 61.1
},
"339": {
"district": "выборгский",
"vk_id": 339,
"longitude": 30.3414547,
"type": "гимназия",
"latitude": 60.0537316,
"name": "114",
"use": 59.6
},
"10653": {
"district": "выборгский",
"vk_id": 10653,
"longitude": 30.345697,
"type": "гимназия",
"latitude": 59.9646473,
"name": "107",
"use": 60.1
},
"1385": {
"district": "выборгский",
"vk_id": 1385,
"longitude": 30.322147,
"type": "математика",
"latitude": 60.059928,
"name": "558",
"use": 61.2
},
"245": {
"district": "выборгский",
"vk_id": 245,
"longitude": 30.3724658,
"type": "математика",
"latitude": 60.049305,
"name": "103",
"use": 57.7
},
"1800": {
"district": "выборгский",
"vk_id": 1800,
"longitude": 30.362115,
"type": "экономика",
"latitude": 60.014019,
"name": "517",
"use": 59
},
"734": {
"district": "выборгский",
"vk_id": 734,
"longitude": 30.359299,
"type": null,
"latitude": 60.040232,
"name": "62",
"use": 59.5
},
"23629": {
"district": "выборгский",
"vk_id": 23629,
"longitude": 30.352358,
"type": "английский",
"latitude": 60.008982,
"name": "124",
"use": 58.3
},
"112107": {
"district": "выборгский",
"vk_id": 112107,
"longitude": 30.356376,
"type": null,
"latitude": 60.040614,
"name": "584 (коррекционная)",
"use": 64.2
},
"21166": {
"district": "выборгский",
"vk_id": 21166,
"longitude": 30.3370453,
"type": null,
"latitude": 60.0474101,
"name": "518",
"use": 59.8
},
"16654": {
"district": "выборгский",
"vk_id": 16654,
"longitude": 30.3380799,
"type": "французский",
"latitude": 60.0393139,
"name": "65",
"use": 55.6
},
"799": {
"district": "выборгский",
"vk_id": 799,
"longitude": 30.311615,
"type": null,
"latitude": 60.027014,
"name": "102",
"use": 61.6
},
"278": {
"district": "выборгский",
"vk_id": 278,
"longitude": 30.3418199,
"type": null,
"latitude": 60.0431706,
"name": "135",
"use": 54.9
},
"13012": {
"district": "выборгский",
"vk_id": 13012,
"longitude": 30.318853,
"type": "лицей",
"latitude": 60.053812,
"name": "486",
"use": 62.4
},
"542": {
"district": "выборгский",
"vk_id": 542,
"longitude": 30.324723,
"type": null,
"latitude": 60.046745,
"name": "463",
"use": 57.1
},
"286": {
"district": "выборгский",
"vk_id": 286,
"longitude": 30.3376205,
"type": null,
"latitude": 60.034802,
"name": "468",
"use": 58.7
},
"2673": {
"district": "выборгский",
"vk_id": 2673,
"longitude": 30.314401,
"type": null,
"latitude": 60.05994,
"name": "494",
"use": 57.3
},
"44776": {
"district": "выборгский",
"vk_id": 44776,
"longitude": 30.345702,
"type": null,
"latitude": 60.001739,
"name": "33 (слабослыш)",
"use": 56.2
},
"3369": {
"district": "выборгский",
"vk_id": 3369,
"longitude": 30.349394,
"type": null,
"latitude": 60.04667,
"name": "120",
"use": 54.8
},
"21661": {
"district": "выборгский",
"vk_id": 21661,
"longitude": 30.3423304,
"type": "физика и математика",
"latitude": 60.0550476,
"name": "559",
"use": 54.2
},
"698": {
"district": "выборгский",
"vk_id": 698,
"longitude": 30.339702,
"type": null,
"latitude": 59.998975,
"name": "117",
"use": 55.6
},
"1024": {
"district": "выборгский",
"vk_id": 1024,
"longitude": 30.329447,
"type": "информатика",
"latitude": 60.0570691,
"name": "483",
"use": 52.2
},
"2698": {
"district": "выборгский",
"vk_id": 2698,
"longitude": 30.2997525,
"type": null,
"latitude": 59.9895318,
"name": "471",
"use": 57.3
},
"18374": {
"district": "выборгский",
"vk_id": 18374,
"longitude": 30.3539519,
"type": null,
"latitude": 60.0031131,
"name": "76",
"use": 52.8
},
"411": {
"district": "выборгский",
"vk_id": 411,
"longitude": 30.360272,
"type": null,
"latitude": 60.049367,
"name": "112",
"use": 52.7
},
"9891": {
"district": "выборгский",
"vk_id": 9891,
"longitude": 30.3258215,
"type": null,
"latitude": 60.0334024,
"name": "90",
"use": 52.6
},
"281": {
"district": "выборгский",
"vk_id": 281,
"longitude": 30.349266,
"type": null,
"latitude": 59.986857,
"name": "104",
"use": 50.3
},
"4498": {
"district": "выборгский",
"vk_id": 4498,
"longitude": 30.3090048,
"type": null,
"latitude": 60.0649476,
"name": "453",
"use": 51.6
},
"2117": {
"district": "выборгский",
"vk_id": 2117,
"longitude": 30.3492755,
"type": null,
"latitude": 60.0352731,
"name": "60",
"use": 52.6
},
"5754": {
"district": "выборгский",
"vk_id": 5754,
"longitude": 30.3343,
"type": null,
"latitude": 60.013643,
"name": "97",
"use": 51.4
},
"5887": {
"district": "выборгский",
"vk_id": 5887,
"longitude": 30.3483606,
"type": null,
"latitude": 59.9832009,
"name": "123",
"use": 52.1
},
"4164": {
"district": "выборгский",
"vk_id": 4164,
"longitude": 30.196092,
"type": null,
"latitude": 60.101847,
"name": "472 (карпова)",
"use": 55.4
},
"6681": {
"district": "выборгский",
"vk_id": 6681,
"longitude": 30.343758,
"type": null,
"latitude": 60.042905,
"name": "115",
"use": 48.4
},
"1185": {
"district": "выборгский",
"vk_id": 1185,
"longitude": 30.345768,
"type": null,
"latitude": 59.9621463,
"name": "560",
"use": 52.1
},
"22497": {
"district": "выборгский",
"vk_id": 22497,
"longitude": 30.3650345,
"type": null,
"latitude": 60.0405044,
"name": "118",
"use": 53.6
},
"83549": {
"district": "выборгский",
"vk_id": 83549,
"longitude": 30.3552391,
"type": null,
"latitude": 60.054537,
"name": "110",
"use": 53.6
},
"50168": {
"district": "выборгский",
"vk_id": 50168,
"longitude": 30.323436,
"type": null,
"latitude": 60.059551,
"name": "94",
"use": 49.4
},
"12110": {
"district": "выборгский",
"vk_id": 12110,
"longitude": 30.276728,
"type": null,
"latitude": 60.076928,
"name": "474",
"use": 49.1
},
"1725": {
"district": "выборгский",
"vk_id": 1725,
"longitude": 30.24144,
"type": null,
"latitude": 60.081464,
"name": "475",
"use": 50.5
},
"8630": {
"district": "выборгский",
"vk_id": 8630,
"longitude": 30.3213708,
"type": null,
"latitude": 60.0744568,
"name": "469",
"use": 45.4
},
"7026": {
"district": "калининский",
"vk_id": 7026,
"longitude": 30.374429,
"type": "лицей",
"latitude": 60.002917,
"name": "ФТШ",
"use": 77.9
},
"56": {
"district": "калининский",
"vk_id": 56,
"longitude": 30.397625,
"type": "лицей",
"latitude": 60.0038247,
"name": "470",
"use": 72.7
},
"691850": {
"district": "калининский",
"vk_id": 691850,
"longitude": 30.3946458,
"type": "лицей",
"latitude": 59.9743378,
"name": "126",
"use": 67.8
},
"993": {
"district": "калининский",
"vk_id": 993,
"longitude": 30.3740618,
"type": "иностранные",
"latitude": 60.0386351,
"name": "63",
"use": 67.9
},
"1918": {
"district": "калининский",
"vk_id": 1918,
"longitude": 30.4104771,
"type": "лицей",
"latitude": 60.0072716,
"name": "95",
"use": 68.5
},
"68": {
"district": "калининский",
"vk_id": 68,
"longitude": 30.4111621,
"type": "лицей",
"latitude": 60.0448162,
"name": "144",
"use": 67.7
},
"21144": {
"district": "калининский",
"vk_id": 21144,
"longitude": 30.418024,
"type": "лицей",
"latitude": 60.040932,
"name": "179",
"use": 70.6
},
"421": {
"district": "калининский",
"vk_id": 421,
"longitude": 30.3742482,
"type": "лицей",
"latitude": 60.0239789,
"name": "150",
"use": 67.3
},
"19641": {
"district": "калининский",
"vk_id": 19641,
"longitude": 30.3794826,
"type": "гимназия",
"latitude": 60.0210728,
"name": "148",
"use": 61.6
},
"2394": {
"district": "калининский",
"vk_id": 2394,
"longitude": 30.423921,
"type": null,
"latitude": 60.024238,
"name": "619",
"use": 67.9
},
"346": {
"district": "калининский",
"vk_id": 346,
"longitude": 30.4052264,
"type": "гимназия",
"latitude": 59.9853812,
"name": "159",
"use": 68.4
},
"423": {
"district": "калининский",
"vk_id": 423,
"longitude": 30.398872,
"type": "английский",
"latitude": 60.020473,
"name": "98",
"use": 64.4
},
"6972": {
"district": "калининский",
"vk_id": 6972,
"longitude": 30.4206134,
"type": "гимназия",
"latitude": 59.986678,
"name": "192",
"use": 64.1
},
"208": {
"district": "калининский",
"vk_id": 208,
"longitude": 30.391426,
"type": "немецкий",
"latitude": 60.001177,
"name": "111",
"use": 64.6
},
"525": {
"district": "калининский",
"vk_id": 525,
"longitude": 30.4203322,
"type": null,
"latitude": 60.0286825,
"name": "89",
"use": 62.6
},
"13232": {
"district": "калининский",
"vk_id": 13232,
"longitude": 30.3930223,
"type": null,
"latitude": 60.0168937,
"name": "71",
"use": 62.2
},
"1037": {
"district": "калининский",
"vk_id": 1037,
"longitude": 30.407469,
"type": "математика",
"latitude": 59.966679,
"name": "139",
"use": 65.5
},
"22465": {
"district": "калининский",
"vk_id": 22465,
"longitude": 30.3969267,
"type": "английский",
"latitude": 60.0473114,
"name": "119",
"use": 61.2
},
"32": {
"district": "калининский",
"vk_id": 32,
"longitude": 30.400168,
"type": null,
"latitude": 59.968294,
"name": "138",
"use": 61.8
},
"501": {
"district": "калининский",
"vk_id": 501,
"longitude": 30.37545,
"type": null,
"latitude": 60.025077,
"name": "158",
"use": 61.3
},
"3": {
"district": "калининский",
"vk_id": 3,
"longitude": 30.405874,
"type": null,
"latitude": 60.013885,
"name": "78",
"use": 61.2
},
"227": {
"district": "калининский",
"vk_id": 227,
"longitude": 30.411871,
"type": "немецкий",
"latitude": 60.0342688,
"name": "72",
"use": 60.4
},
"2270": {
"district": "калининский",
"vk_id": 2270,
"longitude": 30.4340447,
"type": "информатика",
"latitude": 59.9962293,
"name": "156",
"use": 55.3
},
"20641": {
"district": "калининский",
"vk_id": 20641,
"longitude": 30.384986,
"type": null,
"latitude": 60.047087,
"name": "69",
"use": 62.6
},
"513": {
"district": "калининский",
"vk_id": 513,
"longitude": 30.4017914,
"type": null,
"latitude": 60.0359779,
"name": "79",
"use": 60.7
},
"249": {
"district": "калининский",
"vk_id": 249,
"longitude": 30.4064293,
"type": null,
"latitude": 60.0117121,
"name": "121",
"use": 62.3
},
"15017": {
"district": "калининский",
"vk_id": 15017,
"longitude": 30.3883874,
"type": null,
"latitude": 59.9969153,
"name": "9 (интернат)",
"use": 55.4
},
"1021": {
"district": "калининский",
"vk_id": 1021,
"longitude": 30.4189013,
"type": null,
"latitude": 60.0095954,
"name": "88",
"use": 54.1
},
"325": {
"district": "калининский",
"vk_id": 325,
"longitude": 30.379244,
"type": null,
"latitude": 60.037214,
"name": "692",
"use": 60.4
},
"23666": {
"district": "калининский",
"vk_id": 23666,
"longitude": 30.384906,
"type": null,
"latitude": 60.0200368,
"name": "137",
"use": 53.7
},
"265": {
"district": "калининский",
"vk_id": 265,
"longitude": 30.4190601,
"type": "иностранные",
"latitude": 59.9848556,
"name": "653",
"use": 58.8
},
"2080": {
"district": "калининский",
"vk_id": 2080,
"longitude": 30.417074,
"type": null,
"latitude": 60.039707,
"name": "68",
"use": 58.6
},
"146": {
"district": "калининский",
"vk_id": 146,
"longitude": 30.4258701,
"type": null,
"latitude": 60.0030605,
"name": "184",
"use": 53.6
},
"762": {
"district": "калининский",
"vk_id": 762,
"longitude": 30.428171,
"type": "искусство",
"latitude": 60.035265,
"name": "175",
"use": 53.8
},
"432": {
"district": "калининский",
"vk_id": 432,
"longitude": 30.375784,
"type": "кадетские",
"latitude": 60.015103,
"name": "145",
"use": 55.4
},
"494": {
"district": "калининский",
"vk_id": 494,
"longitude": 30.3961069,
"type": null,
"latitude": 60.0434715,
"name": "128",
"use": 56
},
"13992": {
"district": "калининский",
"vk_id": 13992,
"longitude": 30.3848179,
"type": null,
"latitude": 60.0447852,
"name": "81",
"use": 54.9
},
"1176": {
"district": "калининский",
"vk_id": 1176,
"longitude": 30.377161,
"type": null,
"latitude": 59.997222,
"name": "514",
"use": 51.6
},
"6506": {
"district": "калининский",
"vk_id": 6506,
"longitude": 30.380886,
"type": null,
"latitude": 60.039143,
"name": "172",
"use": 54.7
},
"23511": {
"district": "калининский",
"vk_id": 23511,
"longitude": 30.4203916,
"type": null,
"latitude": 60.0155934,
"name": "535",
"use": 51.8
},
"23394": {
"district": "калининский",
"vk_id": 23394,
"longitude": 30.409513,
"type": null,
"latitude": 59.980945,
"name": "146",
"use": 50.7
},
"907": {
"district": "калининский",
"vk_id": 907,
"longitude": 30.417347,
"type": null,
"latitude": 60.025928,
"name": "149",
"use": 54
},
"13572": {
"district": "калининский",
"vk_id": 13572,
"longitude": 30.4016617,
"type": null,
"latitude": 59.9807711,
"name": "186",
"use": 49.3
},
"556": {
"district": "калининский",
"vk_id": 556,
"longitude": 30.4094552,
"type": null,
"latitude": 60.031578,
"name": "176",
"use": 48.9
},
"274": {
"district": "калининский",
"vk_id": 274,
"longitude": 30.3912933,
"type": null,
"latitude": 60.0387479,
"name": "136",
"use": 48.2
},
"3331": {
"district": "калининский",
"vk_id": 3331,
"longitude": 30.4262578,
"type": null,
"latitude": 60.0271949,
"name": "96",
"use": 50.5
},
"1152": {
"district": "калининский",
"vk_id": 1152,
"longitude": 30.4322147,
"type": null,
"latitude": 60.0080403,
"name": "162",
"use": 45.5
},
"1702": {
"district": "калининский",
"vk_id": 1702,
"longitude": 30.4148348,
"type": null,
"latitude": 60.0104856,
"name": "633 (ЦО)",
"use": 34.9
},
"12": {
"district": "центральный",
"vk_id": 12,
"longitude": 30.351328,
"type": "лицей",
"latitude": 59.9446641,
"name": "239",
"use": 77.9
},
"23513": {
"district": "центральный",
"vk_id": 23513,
"longitude": 30.339277,
"type": "лицей",
"latitude": 59.931962,
"name": "Аничков лицей",
"use": 70.7
},
"357": {
"district": "центральный",
"vk_id": 357,
"longitude": 30.354023,
"type": "лицей",
"latitude": 59.933334,
"name": "214",
"use": 66.1
},
"444": {
"district": "центральный",
"vk_id": 444,
"longitude": 30.3685459,
"type": "гимназия",
"latitude": 59.9367716,
"name": "155",
"use": 72.3
},
"4856": {
"district": "центральный",
"vk_id": 4856,
"longitude": 30.381903,
"type": "гимназия",
"latitude": 59.924347,
"name": "168",
"use": 67.1
},
"416": {
"district": "центральный",
"vk_id": 416,
"longitude": 30.354683,
"type": "гимназия",
"latitude": 59.938096,
"name": "171",
"use": 66.7
},
"851": {
"district": "центральный",
"vk_id": 851,
"longitude": 30.390831,
"type": "гимназия",
"latitude": 59.944992,
"name": "157",
"use": 67.1
},
"10651": {
"district": "центральный",
"vk_id": 10651,
"longitude": 30.359044,
"type": "гимназия",
"latitude": 59.934398,
"name": "209",
"use": 63.1
},
"53": {
"district": "центральный",
"vk_id": 53,
"longitude": 30.355407,
"type": "английский",
"latitude": 59.9320759,
"name": "207",
"use": 66.6
},
"10867": {
"district": "центральный",
"vk_id": 10867,
"longitude": 30.332876,
"type": "иностранные",
"latitude": 59.928965,
"name": "550",
"use": 64.4
},
"1470": {
"district": "центральный",
"vk_id": 1470,
"longitude": 30.3699282,
"type": "гимназия",
"latitude": 59.9490341,
"name": "Альма матер",
"use": 61.7
},
"294": {
"district": "центральный",
"vk_id": 294,
"longitude": 30.360725,
"type": "английский",
"latitude": 59.944172,
"name": "183",
"use": 65.1
},
"145": {
"district": "центральный",
"vk_id": 145,
"longitude": 30.320659,
"type": "иностранные",
"latitude": 59.9377238,
"name": "636",
"use": 61.7
},
"3119": {
"district": "центральный",
"vk_id": 3119,
"longitude": 30.3136234,
"type": " ",
"latitude": 59.9344641,
"name": "Международная школа герценовского университета",
"use": 62.4
},
"485": {
"district": "центральный",
"vk_id": 485,
"longitude": 30.3563405,
"type": "английский",
"latitude": 59.9488564,
"name": "185",
"use": 62
},
"289": {
"district": "центральный",
"vk_id": 289,
"longitude": 30.370525,
"type": "гимназия",
"latitude": 59.937612,
"name": "166",
"use": 58.7
},
"533": {
"district": "центральный",
"vk_id": 533,
"longitude": 30.3698452,
"type": "английский",
"latitude": 59.9263315,
"name": "169",
"use": 59.1
},
"3356": {
"district": "центральный",
"vk_id": 3356,
"longitude": 30.3341615,
"type": "гимназия",
"latitude": 59.9368833,
"name": "Российская гимназия при русском музее",
"use": 58
},
"898": {
"district": "центральный",
"vk_id": 898,
"longitude": 30.3607386,
"type": "естественные науки",
"latitude": 59.9448476,
"name": "197",
"use": 56.8
},
"408": {
"district": "центральный",
"vk_id": 408,
"longitude": 30.3163489,
"type": null,
"latitude": 59.9367993,
"name": "210",
"use": 58.6
},
"587": {
"district": "центральный",
"vk_id": 587,
"longitude": 30.3240064,
"type": null,
"latitude": 59.9374366,
"name": "222",
"use": 55.5
},
"827": {
"district": "центральный",
"vk_id": 827,
"longitude": 30.3415919,
"type": "искусство",
"latitude": 59.9402575,
"name": "190",
"use": 59.4
},
"78": {
"district": "центральный",
"vk_id": 78,
"longitude": 30.317756,
"type": "французский",
"latitude": 59.931442,
"name": "211 (Кубертен)",
"use": 55.2
},
"61": {
"district": "центральный",
"vk_id": 61,
"longitude": 30.3350503,
"type": "математика",
"latitude": 59.9255896,
"name": "308",
"use": 57.9
},
"154": {
"district": "центральный",
"vk_id": 154,
"longitude": 30.3231119,
"type": "иностранные",
"latitude": 59.9430169,
"name": "204",
"use": 55.6
},
"6012": {
"district": "центральный",
"vk_id": 6012,
"longitude": 30.35088,
"type": null,
"latitude": 59.919985,
"name": "309",
"use": 61.9
},
"16147": {
"district": "центральный",
"vk_id": 16147,
"longitude": 30.3800967,
"type": null,
"latitude": 59.9433543,
"name": "163",
"use": 59
},
"20241": {
"district": "центральный",
"vk_id": 20241,
"longitude": 30.357626,
"type": "частная",
"latitude": 59.938139,
"name": "Обучение в диалоге",
"use": 56.1
},
"19075": {
"district": "центральный",
"vk_id": 19075,
"longitude": 30.340465,
"type": null,
"latitude": 59.923522,
"name": "321",
"use": 54.1
},
"2978": {
"district": "центральный",
"vk_id": 2978,
"longitude": 30.343518,
"type": null,
"latitude": 59.918093,
"name": "612",
"use": 55.5
},
"22138": {
"district": "центральный",
"vk_id": 22138,
"longitude": 30.342196,
"type": null,
"latitude": 59.943431,
"name": "181",
"use": 53
},
"19029": {
"district": "центральный",
"vk_id": 19029,
"longitude": 30.341773,
"type": "частная",
"latitude": 59.9475464,
"name": "Мирт",
"use": 48.2
},
"20998": {
"district": "центральный",
"vk_id": 20998,
"longitude": 30.3498687,
"type": null,
"latitude": 59.9430395,
"name": "189 (шанс)",
"use": 49.2
},
"14664": {
"district": "центральный",
"vk_id": 14664,
"longitude": 30.3574041,
"type": null,
"latitude": 59.9199531,
"name": "304",
"use": 50.9
},
"179": {
"district": "центральный",
"vk_id": 179,
"longitude": 30.366313,
"type": null,
"latitude": 59.9289465,
"name": "153",
"use": 57.7
},
"4300": {
"district": "центральный",
"vk_id": 4300,
"longitude": 30.3781297,
"type": null,
"latitude": 59.9361067,
"name": "178",
"use": 48.7
},
"463": {
"district": "центральный",
"vk_id": 463,
"longitude": 30.3594354,
"type": null,
"latitude": 59.9418683,
"name": "193",
"use": 49.7
},
"508": {
"district": "центральный",
"vk_id": 508,
"longitude": 30.355134,
"type": null,
"latitude": 59.925738,
"name": "294",
"use": 50.4
},
"1804": {
"district": "центральный",
"vk_id": 1804,
"longitude": 30.3810812,
"type": null,
"latitude": 59.9400096,
"name": "174",
"use": 49.4
},
"2121": {
"district": "центральный",
"vk_id": 2121,
"longitude": 30.34325,
"type": null,
"latitude": 59.930913,
"name": "122",
"use": 47.4
},
"52510": {
"district": "центральный",
"vk_id": 52510,
"longitude": 30.383141,
"type": null,
"latitude": 59.9333444,
"name": "80 (ЦО)",
"use": 47.4
},
"199": {
"district": "центральный",
"vk_id": 199,
"longitude": 30.3462711,
"type": "польский",
"latitude": 59.930519,
"name": "216",
"use": 46.8
},
"54": {
"district": "кировский",
"vk_id": 54,
"longitude": 30.2422889,
"type": "гимназия",
"latitude": 59.8572038,
"name": "261",
"use": 71.6
},
"94": {
"district": "кировский",
"vk_id": 94,
"longitude": 30.2677631,
"type": "лицей",
"latitude": 59.8666005,
"name": "393",
"use": 70.5
},
"148": {
"district": "кировский",
"vk_id": 148,
"longitude": 30.2677252,
"type": "английский",
"latitude": 59.8398835,
"name": "248",
"use": 68.2
},
"1180": {
"district": "кировский",
"vk_id": 1180,
"longitude": 30.215745,
"type": "лицей",
"latitude": 59.831943,
"name": "244",
"use": 61.2
},
"15040": {
"district": "кировский",
"vk_id": 15040,
"longitude": 30.2753867,
"type": "лицей",
"latitude": 59.8974095,
"name": "384",
"use": 63.7
},
"55363": {
"district": "кировский",
"vk_id": 55363,
"longitude": 30.2643263,
"type": "английский",
"latitude": 59.8469943,
"name": "504",
"use": 60
},
"806": {
"district": "кировский",
"vk_id": 806,
"longitude": 30.270974,
"type": "немецкий",
"latitude": 59.854619,
"name": "481",
"use": 62.6
},
"18196": {
"district": "кировский",
"vk_id": 18196,
"longitude": 30.2275615,
"type": "немецкий",
"latitude": 59.8290451,
"name": "506",
"use": 58.3
},
"160": {
"district": "кировский",
"vk_id": 160,
"longitude": 30.266367,
"type": "гимназия",
"latitude": 59.877255,
"name": "397",
"use": 63.1
},
"3354": {
"district": "кировский",
"vk_id": 3354,
"longitude": 30.2114642,
"type": "немецкий",
"latitude": 59.8298103,
"name": "223",
"use": 65.9
},
"401": {
"district": "кировский",
"vk_id": 401,
"longitude": 30.204243,
"type": "английский",
"latitude": 59.8357303,
"name": "254",
"use": 59.2
},
"105": {
"district": "кировский",
"vk_id": 105,
"longitude": 30.263124,
"type": "иностранные",
"latitude": 59.839617,
"name": "274",
"use": 57.5
},
"843": {
"district": "кировский",
"vk_id": 843,
"longitude": 30.2551948,
"type": null,
"latitude": 59.8340821,
"name": "551",
"use": 59.2
},
"119": {
"district": "кировский",
"vk_id": 119,
"longitude": 30.23205,
"type": null,
"latitude": 59.840097,
"name": "249",
"use": 60.2
},
"1904": {
"district": "кировский",
"vk_id": 1904,
"longitude": 30.2553863,
"type": "экология",
"latitude": 59.8714436,
"name": "389",
"use": 58.7
},
"106": {
"district": "кировский",
"vk_id": 106,
"longitude": 30.1988156,
"type": "лицей",
"latitude": 59.8314484,
"name": "378",
"use": 56.9
},
"27": {
"district": "кировский",
"vk_id": 27,
"longitude": 30.269749,
"type": "информатика",
"latitude": 59.871876,
"name": "501",
"use": 57.8
},
"693": {
"district": "кировский",
"vk_id": 693,
"longitude": 30.2531555,
"type": "лицей",
"latitude": 59.8484053,
"name": "387",
"use": 58.2
},
"59": {
"district": "кировский",
"vk_id": 59,
"longitude": 30.2200031,
"type": "французский",
"latitude": 59.8358484,
"name": "392",
"use": 54.2
},
"482": {
"district": "кировский",
"vk_id": 482,
"longitude": 30.269475,
"type": "испанский",
"latitude": 59.842194,
"name": "539",
"use": 57.5
},
"22217": {
"district": "кировский",
"vk_id": 22217,
"longitude": 30.25283,
"type": "французский",
"latitude": 59.84011,
"name": "282",
"use": 58.3
},
"1225": {
"district": "кировский",
"vk_id": 1225,
"longitude": 30.239243,
"type": null,
"latitude": 59.848656,
"name": "585",
"use": 55.6
},
"66011": {
"district": "кировский",
"vk_id": 66011,
"longitude": 30.246209,
"type": null,
"latitude": 59.8617,
"name": "264",
"use": 56.6
},
"765": {
"district": "кировский",
"vk_id": 765,
"longitude": 30.27519,
"type": "информатика",
"latitude": 59.846532,
"name": "538",
"use": 54.9
},
"120": {
"district": "кировский",
"vk_id": 120,
"longitude": 30.2603811,
"type": "гимназия",
"latitude": 59.8356006,
"name": "284",
"use": 56.3
},
"56109": {
"district": "кировский",
"vk_id": 56109,
"longitude": 30.217285,
"type": null,
"latitude": 59.903768,
"name": "379",
"use": 55.9
},
"1758": {
"district": "кировский",
"vk_id": 1758,
"longitude": 30.2671454,
"type": null,
"latitude": 59.8733233,
"name": "386",
"use": 54.5
},
"1818": {
"district": "кировский",
"vk_id": 1818,
"longitude": 30.233785,
"type": null,
"latitude": 59.855764,
"name": "377",
"use": 54.3
},
"2068": {
"district": "кировский",
"vk_id": 2068,
"longitude": 30.271746,
"type": null,
"latitude": 59.892847,
"name": "381",
"use": 57
},
"10147": {
"district": "кировский",
"vk_id": 10147,
"longitude": 30.2522714,
"type": null,
"latitude": 59.8543784,
"name": "493",
"use": 53.3
},
"22717": {
"district": "кировский",
"vk_id": 22717,
"longitude": 30.1987316,
"type": null,
"latitude": 59.8286491,
"name": "283",
"use": 55.9
},
"1359": {
"district": "кировский",
"vk_id": 1359,
"longitude": 30.262049,
"type": null,
"latitude": 59.849727,
"name": "503",
"use": 50.7
},
"91": {
"district": "кировский",
"vk_id": 91,
"longitude": 30.271276,
"type": null,
"latitude": 59.885768,
"name": "388",
"use": 49.9
},
"1319": {
"district": "кировский",
"vk_id": 1319,
"longitude": 30.2752809,
"type": null,
"latitude": 59.8546661,
"name": "269",
"use": 47.2
},
"13415": {
"district": "кировский",
"vk_id": 13415,
"longitude": 30.2723249,
"type": null,
"latitude": 59.8743081,
"name": "479",
"use": 49.3
},
"12689": {
"district": "кировский",
"vk_id": 12689,
"longitude": 30.268694,
"type": null,
"latitude": 59.897991,
"name": "608",
"use": 50.8
},
"87": {
"district": "кировский",
"vk_id": 87,
"longitude": 30.224767,
"type": null,
"latitude": 59.831872,
"name": "250",
"use": 49.9
},
"490": {
"district": "кировский",
"vk_id": 490,
"longitude": 30.24321,
"type": null,
"latitude": 59.844693,
"name": "277",
"use": 50
},
"632": {
"district": "кировский",
"vk_id": 632,
"longitude": 30.2197651,
"type": null,
"latitude": 59.827262,
"name": "251",
"use": 46.8
},
"1896": {
"district": "кировский",
"vk_id": 1896,
"longitude": 30.20724,
"type": null,
"latitude": 59.836906,
"name": "240",
"use": 46.4
},
"21857": {
"district": "колпинский",
"vk_id": 21857,
"longitude": 30.5654669,
"type": "гимназия",
"latitude": 59.734884,
"name": "446",
"use": 65.9
},
"21432": {
"district": "колпинский",
"vk_id": 21432,
"longitude": 30.612069,
"type": "гимназия",
"latitude": 59.744635,
"name": "402",
"use": 61.9
},
"752": {
"district": "колпинский",
"vk_id": 752,
"longitude": 30.5701715,
"type": "лицей",
"latitude": 59.8162824,
"name": "273",
"use": 62.3
},
"22836": {
"district": "колпинский",
"vk_id": 22836,
"longitude": 30.569042,
"type": "физика и химия",
"latitude": 59.7460841,
"name": "258",
"use": 64
},
"638": {
"district": "колпинский",
"vk_id": 638,
"longitude": 30.6081733,
"type": "английский",
"latitude": 59.744288,
"name": "455",
"use": 59.2
},
"1295": {
"district": "колпинский",
"vk_id": 1295,
"longitude": 30.5859284,
"type": null,
"latitude": 59.7370481,
"name": "404",
"use": 59.5
},
"17527": {
"district": "колпинский",
"vk_id": 17527,
"longitude": 30.563661,
"type": null,
"latitude": 59.813202,
"name": "621",
"use": 62.6
},
"2041": {
"district": "колпинский",
"vk_id": 2041,
"longitude": 30.565585,
"type": null,
"latitude": 59.745661,
"name": "476",
"use": 58.7
},
"749": {
"district": "колпинский",
"vk_id": 749,
"longitude": 30.576212,
"type": null,
"latitude": 59.7515853,
"name": "523",
"use": 57
},
"520": {
"district": "колпинский",
"vk_id": 520,
"longitude": 30.586758,
"type": null,
"latitude": 59.743044,
"name": "420",
"use": 55.9
},
"5537": {
"district": "колпинский",
"vk_id": 5537,
"longitude": 30.5727567,
"type": null,
"latitude": 59.7343364,
"name": "461",
"use": 55
},
"158": {
"district": "колпинский",
"vk_id": 158,
"longitude": 30.5658334,
"type": null,
"latitude": 59.738699,
"name": "467",
"use": 54.5
},
"1841": {
"district": "колпинский",
"vk_id": 1841,
"longitude": 30.5736144,
"type": null,
"latitude": 59.7391549,
"name": "401",
"use": 56.5
},
"669": {
"district": "колпинский",
"vk_id": 669,
"longitude": 30.616721,
"type": null,
"latitude": 59.738707,
"name": "456",
"use": 54.9
},
"1400": {
"district": "колпинский",
"vk_id": 1400,
"longitude": 30.6158787,
"type": null,
"latitude": 59.7375751,
"name": "588",
"use": 54.9
},
"2236": {
"district": "колпинский",
"vk_id": 2236,
"longitude": 30.640222,
"type": null,
"latitude": 59.781862,
"name": "520",
"use": 44.8
},
"668": {
"district": "колпинский",
"vk_id": 668,
"longitude": 30.6136625,
"type": null,
"latitude": 59.7328335,
"name": "589",
"use": 57.9
},
"8812": {
"district": "колпинский",
"vk_id": 8812,
"longitude": 30.5842009,
"type": null,
"latitude": 59.7314523,
"name": "454",
"use": 47
},
"6242": {
"district": "колпинский",
"vk_id": 6242,
"longitude": 30.6203137,
"type": null,
"latitude": 59.784709,
"name": "400",
"use": 49.7
},
"1026": {
"district": "колпинский",
"vk_id": 1026,
"longitude": 30.576665,
"type": null,
"latitude": 59.807147,
"name": "451",
"use": 45.3
},
"6191": {
"district": "Красногвардейский",
"vk_id": 6191,
"longitude": 30.492607,
"type": "гимназия",
"latitude": 59.954312,
"name": "628",
"use": 70.5
},
"6": {
"district": "Красногвардейский",
"vk_id": 6,
"longitude": 30.425513,
"type": "гимназия",
"latitude": 59.931143,
"name": "Петершуле",
"use": 70.4
},
"48392": {
"district": "Красногвардейский",
"vk_id": 48392,
"longitude": 30.4728397,
"type": "гимназия",
"latitude": 59.9558242,
"name": "177",
"use": 66.5
},
"439": {
"district": "Красногвардейский",
"vk_id": 439,
"longitude": 30.4806314,
"type": "английский",
"latitude": 59.9378179,
"name": "577",
"use": 63.8
},
"10925": {
"district": "Красногвардейский",
"vk_id": 10925,
"longitude": 30.4651201,
"type": "английский",
"latitude": 59.9519402,
"name": "127",
"use": 63.9
},
"35": {
"district": "Красногвардейский",
"vk_id": 35,
"longitude": 30.4235221,
"type": "английский",
"latitude": 59.956471,
"name": "160",
"use": 61.1
},
"70756": {
"district": "Красногвардейский",
"vk_id": 70756,
"longitude": 30.4797487,
"type": "английский",
"latitude": 59.9519232,
"name": "196",
"use": 63.7
},
"10397": {
"district": "Красногвардейский",
"vk_id": 10397,
"longitude": 30.4663002,
"type": "гимназия",
"latitude": 59.9481566,
"name": "664",
"use": 65.3
},
"743": {
"district": "Красногвардейский",
"vk_id": 743,
"longitude": 30.499205,
"type": "лицей",
"latitude": 59.938264,
"name": "265",
"use": 61
},
"6836": {
"district": "Красногвардейский",
"vk_id": 6836,
"longitude": 30.481626,
"type": null,
"latitude": 59.947485,
"name": "531",
"use": 53.7
},
"2131": {
"district": "Красногвардейский",
"vk_id": 2131,
"longitude": 30.494506,
"type": null,
"latitude": 59.946754,
"name": "164",
"use": 65.1
},
"188": {
"district": "Красногвардейский",
"vk_id": 188,
"longitude": 30.417606,
"type": "лицей",
"latitude": 59.926642,
"name": "533",
"use": 65.6
},
"3878": {
"district": "Красногвардейский",
"vk_id": 3878,
"longitude": 30.417557,
"type": "немецкий",
"latitude": 59.94591,
"name": "515",
"use": 66.3
},
"50348": {
"district": "Красногвардейский",
"vk_id": 50348,
"longitude": 30.4791899,
"type": "иностранные",
"latitude": 59.955039,
"name": "405",
"use": 62.6
},
"1419": {
"district": "Красногвардейский",
"vk_id": 1419,
"longitude": 30.425923,
"type": "математика и информатика",
"latitude": 59.976634,
"name": "521",
"use": 68.1
},
"4089": {
"district": "Красногвардейский",
"vk_id": 4089,
"longitude": 30.4315482,
"type": "искусство",
"latitude": 59.9672293,
"name": "188",
"use": 59
},
"3719": {
"district": "Красногвардейский",
"vk_id": 3719,
"longitude": 30.497858,
"type": null,
"latitude": 59.948458,
"name": "141",
"use": 58.7
},
"49358": {
"district": "Красногвардейский",
"vk_id": 49358,
"longitude": 30.4846898,
"type": "английский",
"latitude": 59.9479482,
"name": "349",
"use": 56.6
},
"409": {
"district": "Красногвардейский",
"vk_id": 409,
"longitude": 30.427336,
"type": null,
"latitude": 59.954862,
"name": "532",
"use": 58.7
},
"343": {
"district": "Красногвардейский",
"vk_id": 343,
"longitude": 30.423336,
"type": "математика",
"latitude": 59.928519,
"name": "491",
"use": 58.6
},
"1730": {
"district": "Красногвардейский",
"vk_id": 1730,
"longitude": 30.4860521,
"type": "иностранные",
"latitude": 59.943442,
"name": "233",
"use": 58.4
},
"22755": {
"district": "Красногвардейский",
"vk_id": 22755,
"longitude": 30.425297,
"type": "английский",
"latitude": 59.9707,
"name": "180",
"use": 54.6
},
"395": {
"district": "Красногвардейский",
"vk_id": 395,
"longitude": 30.4736495,
"type": null,
"latitude": 59.9389987,
"name": "147",
"use": 54.6
},
"1677": {
"district": "Красногвардейский",
"vk_id": 1677,
"longitude": 30.4858431,
"type": null,
"latitude": 59.9373887,
"name": "151",
"use": 54
},
"2232": {
"district": "Красногвардейский",
"vk_id": 2232,
"longitude": 30.465102,
"type": null,
"latitude": 59.95307,
"name": "562",
"use": 58.6
},
"798": {
"district": "Красногвардейский",
"vk_id": 798,
"longitude": 30.418692,
"type": "английский",
"latitude": 59.957153,
"name": "143",
"use": 56.9
},
"551": {
"district": "Красногвардейский",
"vk_id": 551,
"longitude": 30.4920387,
"type": null,
"latitude": 59.9506911,
"name": "195",
"use": 58.8
},
"5832": {
"district": "Красногвардейский",
"vk_id": 5832,
"longitude": 30.5000027,
"type": "немецкий",
"latitude": 59.9436855,
"name": "191",
"use": 58.4
},
"1665956": {
"district": "Красногвардейский",
"vk_id": 1665956,
"longitude": 30.4924492,
"type": null,
"latitude": 59.937116,
"name": "Школа здоровья и индивидуального развития",
"use": 52
},
"16048": {
"district": "Красногвардейский",
"vk_id": 16048,
"longitude": 30.443244,
"type": "французский",
"latitude": 59.9571804,
"name": "133",
"use": 58.9
},
"1816": {
"district": "Красногвардейский",
"vk_id": 1816,
"longitude": 30.487849,
"type": null,
"latitude": 59.958263,
"name": "134",
"use": 52.1
},
"728": {
"district": "Красногвардейский",
"vk_id": 728,
"longitude": 30.4189143,
"type": "иностранные",
"latitude": 59.9230448,
"name": "490",
"use": 54.1
},
"1579": {
"district": "Красногвардейский",
"vk_id": 1579,
"longitude": 30.4124737,
"type": null,
"latitude": 59.9541293,
"name": "129",
"use": 50.7
},
"360": {
"district": "Красногвардейский",
"vk_id": 360,
"longitude": 30.492614,
"type": null,
"latitude": 59.94167,
"name": "182",
"use": 53.7
},
"72305": {
"district": "Красногвардейский",
"vk_id": 72305,
"longitude": 30.4894041,
"type": null,
"latitude": 59.9537791,
"name": "187",
"use": 52.3
},
"22414": {
"district": "Красногвардейский",
"vk_id": 22414,
"longitude": 30.431531,
"type": "частная",
"latitude": 59.9546739,
"name": "Аристос",
"use": 55.3
},
"2241": {
"district": "Красногвардейский",
"vk_id": 2241,
"longitude": 30.506561,
"type": null,
"latitude": 59.976043,
"name": "125",
"use": 46.4
},
"197": {
"district": "Красногвардейский",
"vk_id": 197,
"longitude": 30.407064,
"type": null,
"latitude": 59.924388,
"name": "152",
"use": 50.3
},
"4371": {
"district": "Красногвардейский",
"vk_id": 4371,
"longitude": 30.4100651,
"type": null,
"latitude": 59.956611,
"name": "140",
"use": 57.9
},
"109150": {
"district": "красносельский",
"vk_id": 109150,
"longitude": 30.206458,
"type": "лицей",
"latitude": 59.851896,
"name": "369",
"use": 70.4
},
"141": {
"district": "красносельский",
"vk_id": 141,
"longitude": 30.21991,
"type": "английский",
"latitude": 59.859027,
"name": "548",
"use": 66.1
},
"163": {
"district": "красносельский",
"vk_id": 163,
"longitude": 30.1707444,
"type": "гимназия",
"latitude": 59.8265319,
"name": "399",
"use": 64
},
"648": {
"district": "красносельский",
"vk_id": 648,
"longitude": 30.0742793,
"type": "школа",
"latitude": 59.7208294,
"name": "382",
"use": 63.6
},
"434": {
"district": "красносельский",
"vk_id": 434,
"longitude": 30.1807536,
"type": "гимназия",
"latitude": 59.8522004,
"name": "271",
"use": 63.3
},
"68650": {
"district": "красносельский",
"vk_id": 68650,
"longitude": 30.1523202,
"type": "лицей",
"latitude": 59.835764,
"name": "395",
"use": 64.9
},
"193": {
"district": "красносельский",
"vk_id": 193,
"longitude": 30.157065,
"type": "гимназия",
"latitude": 59.8318568,
"name": "505",
"use": 59.6
},
"22870": {
"district": "красносельский",
"vk_id": 22870,
"longitude": 30.208605,
"type": "лицей",
"latitude": 59.857515,
"name": "590",
"use": 62.6
},
"387": {
"district": "красносельский",
"vk_id": 387,
"longitude": 30.215708,
"type": "гимназия",
"latitude": 59.855808,
"name": "293",
"use": 58.1
},
"4631": {
"district": "красносельский",
"vk_id": 4631,
"longitude": 30.1102455,
"type": null,
"latitude": 59.7810821,
"name": "398",
"use": 56.5
},
"3447": {
"district": "красносельский",
"vk_id": 3447,
"longitude": 30.141186,
"type": "физика и математика",
"latitude": 59.828571,
"name": "242",
"use": 59.5
},
"7211": {
"district": "красносельский",
"vk_id": 7211,
"longitude": 30.0886861,
"type": null,
"latitude": 59.74603,
"name": "380",
"use": 57.4
},
"335": {
"district": "красносельский",
"vk_id": 335,
"longitude": 30.132623,
"type": "немецкий",
"latitude": 59.837678,
"name": "352",
"use": 56.8
},
"3513": {
"district": "красносельский",
"vk_id": 3513,
"longitude": 30.189621,
"type": null,
"latitude": 59.855058,
"name": "549",
"use": 57.9
},
"5580": {
"district": "красносельский",
"vk_id": 5580,
"longitude": 30.0860227,
"type": null,
"latitude": 59.7194594,
"name": "276",
"use": 61.7
},
"19476": {
"district": "красносельский",
"vk_id": 19476,
"longitude": 30.1767412,
"type": "искусство",
"latitude": 59.8493248,
"name": "Лицей Искусств Санкт-Петербург",
"use": 58.9
},
"21965": {
"district": "красносельский",
"vk_id": 21965,
"longitude": 30.2244147,
"type": null,
"latitude": 59.8573955,
"name": "568",
"use": 52.3
},
"1835": {
"district": "красносельский",
"vk_id": 1835,
"longitude": 30.159551,
"type": null,
"latitude": 59.827057,
"name": "390",
"use": 55.2
},
"9632": {
"district": "красносельский",
"vk_id": 9632,
"longitude": 30.151347,
"type": null,
"latitude": 59.827549,
"name": "285",
"use": 58.8
},
"164": {
"district": "красносельский",
"vk_id": 164,
"longitude": 30.181261,
"type": null,
"latitude": 59.82815,
"name": "237",
"use": 58.8
},
"3576": {
"district": "красносельский",
"vk_id": 3576,
"longitude": 30.182053,
"type": null,
"latitude": 59.836198,
"name": "383",
"use": 56.1
},
"747": {
"district": "красносельский",
"vk_id": 747,
"longitude": 30.162407,
"type": null,
"latitude": 59.842628,
"name": "252",
"use": 57
},
"1110": {
"district": "красносельский",
"vk_id": 1110,
"longitude": 30.0812531,
"type": null,
"latitude": 59.7453572,
"name": "270",
"use": 59.7
},
"2575": {
"district": "красносельский",
"vk_id": 2575,
"longitude": 30.1850506,
"type": null,
"latitude": 59.857142,
"name": "375",
"use": 61.1
},
"483": {
"district": "красносельский",
"vk_id": 483,
"longitude": 30.1882256,
"type": "финский",
"latitude": 59.8491901,
"name": "200",
"use": 54.1
},
"10461": {
"district": "красносельский",
"vk_id": 10461,
"longitude": 30.1689721,
"type": null,
"latitude": 59.860142,
"name": "291",
"use": 52.8
},
"7659": {
"district": "красносельский",
"vk_id": 7659,
"longitude": 30.0728205,
"type": null,
"latitude": 59.6692824,
"name": "275",
"use": 58.4
},
"2365": {
"district": "красносельский",
"vk_id": 2365,
"longitude": 30.0791824,
"type": null,
"latitude": 59.7322526,
"name": "262",
"use": 55.5
},
"2183": {
"district": "красносельский",
"vk_id": 2183,
"longitude": 30.1296702,
"type": null,
"latitude": 59.844154,
"name": "385",
"use": 53.5
},
"1784": {
"district": "красносельский",
"vk_id": 1784,
"longitude": 30.144449,
"type": null,
"latitude": 59.78593,
"name": "391",
"use": 53
},
"2598": {
"district": "красносельский",
"vk_id": 2598,
"longitude": 30.1699914,
"type": null,
"latitude": 59.8310685,
"name": "217",
"use": 52.4
},
"803": {
"district": "красносельский",
"vk_id": 803,
"longitude": 30.167538,
"type": null,
"latitude": 59.841986,
"name": "208",
"use": 50.4
},
"5175": {
"district": "красносельский",
"vk_id": 5175,
"longitude": 30.08881,
"type": null,
"latitude": 59.8324,
"name": "414",
"use": 51
},
"6521": {
"district": "красносельский",
"vk_id": 6521,
"longitude": 30.202159,
"type": null,
"latitude": 59.8483896,
"name": "247",
"use": 53.7
},
"890": {
"district": "красносельский",
"vk_id": 890,
"longitude": 30.1961071,
"type": "искусство",
"latitude": 59.859902,
"name": "546",
"use": 54.1
},
"217": {
"district": "красносельский",
"vk_id": 217,
"longitude": 30.1917881,
"type": null,
"latitude": 59.8493356,
"name": "394",
"use": 50.6
},
"34258": {
"district": "красносельский",
"vk_id": 34258,
"longitude": 30.1255055,
"type": null,
"latitude": 59.6972876,
"name": "289",
"use": 49
},
"4024": {
"district": "красносельский",
"vk_id": 4024,
"longitude": 30.1183946,
"type": null,
"latitude": 59.845988,
"name": "167 (ЦО)",
"use": 45.5
},
"807": {
"district": "кронштадский",
"vk_id": 807,
"longitude": 29.7693153,
"type": null,
"latitude": 59.9993824,
"name": "422",
"use": 59.5
},
"11036": {
"district": "кронштадский",
"vk_id": 11036,
"longitude": 29.7804702,
"type": null,
"latitude": 59.9953944,
"name": "423",
"use": 62.6
},
"7": {
"district": "кронштадский",
"vk_id": 7,
"longitude": 29.723255,
"type": null,
"latitude": 60.00882,
"name": "418",
"use": 54.3
},
"10886": {
"district": "кронштадский",
"vk_id": 10886,
"longitude": 29.7624175,
"type": null,
"latitude": 59.9963728,
"name": "425",
"use": 51.8
},
"1196": {
"district": "кронштадский",
"vk_id": 1196,
"longitude": 29.7866194,
"type": null,
"latitude": 59.9867479,
"name": "427",
"use": 50.1
},
"122": {
"district": "курортный",
"vk_id": 122,
"longitude": 29.9708642,
"type": "гимназия",
"latitude": 60.0953495,
"name": "433",
"use": 62.8
},
"11011": {
"district": "курортный",
"vk_id": 11011,
"longitude": 29.9511341,
"type": "английский",
"latitude": 60.0894748,
"name": "556",
"use": 63.5
},
"810": {
"district": "курортный",
"vk_id": 810,
"longitude": 29.7138021,
"type": null,
"latitude": 60.1941264,
"name": "450",
"use": 60.5
},
"14830": {
"district": "курортный",
"vk_id": 14830,
"longitude": 29.8680094,
"type": null,
"latitude": 60.1666976,
"name": "442",
"use": 54.8
},
"11420": {
"district": "курортный",
"vk_id": 11420,
"longitude": 29.7022737,
"type": "лицей",
"latitude": 60.1941907,
"name": "445",
"use": 48.2
},
"7235": {
"district": "курортный",
"vk_id": 7235,
"longitude": 29.9562182,
"type": null,
"latitude": 60.0873351,
"name": "435",
"use": 57
},
"17495": {
"district": "курортный",
"vk_id": 17495,
"longitude": 30.14642,
"type": null,
"latitude": 60.1243634,
"name": "466",
"use": 51.9
},
"872": {
"district": "курортный",
"vk_id": 872,
"longitude": 29.973398,
"type": null,
"latitude": 60.098921,
"name": "541",
"use": 49.4
},
"11713": {
"district": "курортный",
"vk_id": 11713,
"longitude": 29.512566,
"type": null,
"latitude": 60.19506,
"name": "447",
"use": 52.2
},
"11283": {
"district": "курортный",
"vk_id": 11283,
"longitude": 29.968161,
"type": null,
"latitude": 60.081531,
"name": "434",
"use": 53.4
},
"6990": {
"district": "курортный",
"vk_id": 6990,
"longitude": 30.167468,
"type": null,
"latitude": 60.120637,
"name": "437",
"use": 47.9
},
"21430": {
"district": "невский",
"vk_id": 21430,
"longitude": 30.486406,
"type": "лицей",
"latitude": 59.8908761,
"name": "344",
"use": 69.8
},
"11175": {
"district": "невский",
"vk_id": 11175,
"longitude": 30.4821181,
"type": "английский",
"latitude": 59.925794,
"name": "347",
"use": 64.5
},
"14663": {
"district": "невский",
"vk_id": 14663,
"longitude": 30.425418,
"type": "лицей",
"latitude": 59.89737,
"name": "329",
"use": 63.3
},
"11722": {
"district": "невский",
"vk_id": 11722,
"longitude": 30.456875,
"type": "иностранные",
"latitude": 59.92511,
"name": "639",
"use": 66.3
},
"14021": {
"district": "невский",
"vk_id": 14021,
"longitude": 30.4713187,
"type": "финский",
"latitude": 59.9063742,
"name": "23",
"use": 64.5
},
"113": {
"district": "невский",
"vk_id": 113,
"longitude": 30.4894155,
"type": "английский",
"latitude": 59.9192206,
"name": "593",
"use": 61.9
},
"8499": {
"district": "невский",
"vk_id": 8499,
"longitude": 30.4961254,
"type": "гимназия",
"latitude": 59.9231782,
"name": "528",
"use": 65
},
"73": {
"district": "невский",
"vk_id": 73,
"longitude": 30.4618157,
"type": "гимназия",
"latitude": 59.8820459,
"name": "498",
"use": 62.9
},
"10771": {
"district": "невский",
"vk_id": 10771,
"longitude": 30.468092,
"type": "английский",
"latitude": 59.90168,
"name": "13",
"use": 57.7
},
"4346": {
"district": "невский",
"vk_id": 4346,
"longitude": 30.5142395,
"type": null,
"latitude": 59.8330279,
"name": "348",
"use": 62.4
},
"2175": {
"district": "невский",
"vk_id": 2175,
"longitude": 30.4910787,
"type": null,
"latitude": 59.8386122,
"name": "557",
"use": 63.1
},
"880": {
"district": "невский",
"vk_id": 880,
"longitude": 30.4950357,
"type": "английский",
"latitude": 59.8376994,
"name": "571",
"use": 61.2
},
"1828": {
"district": "невский",
"vk_id": 1828,
"longitude": 30.402614,
"type": "гимназия",
"latitude": 59.911744,
"name": "330",
"use": 60.3
},
"22288": {
"district": "невский",
"vk_id": 22288,
"longitude": 30.4453897,
"type": null,
"latitude": 59.8698561,
"name": "345",
"use": 56.9
},
"1216": {
"district": "невский",
"vk_id": 1216,
"longitude": 30.439112,
"type": null,
"latitude": 59.878708,
"name": "331",
"use": 65.3
},
"22784": {
"district": "невский",
"vk_id": 22784,
"longitude": 30.4590368,
"type": "английский",
"latitude": 59.9201618,
"name": "641",
"use": 57.7
},
"2437": {
"district": "невский",
"vk_id": 2437,
"longitude": 30.4501503,
"type": "математика",
"latitude": 59.920884,
"name": "625",
"use": 63.1
},
"233": {
"district": "невский",
"vk_id": 233,
"longitude": 30.485969,
"type": "гимназия",
"latitude": 59.897078,
"name": "343",
"use": 59.2
},
"37": {
"district": "невский",
"vk_id": 37,
"longitude": 30.4509141,
"type": "английский",
"latitude": 59.869897,
"name": "328",
"use": 63.2
},
"1280": {
"district": "невский",
"vk_id": 1280,
"longitude": 30.4603088,
"type": null,
"latitude": 59.8764626,
"name": "497",
"use": 57.4
},
"2570": {
"district": "невский",
"vk_id": 2570,
"longitude": 30.493675,
"type": null,
"latitude": 59.8414481,
"name": "570",
"use": 58.1
},
"18897": {
"district": "невский",
"vk_id": 18897,
"longitude": 30.4678264,
"type": null,
"latitude": 59.9144623,
"name": "346",
"use": 59.4
},
"391": {
"district": "невский",
"vk_id": 391,
"longitude": 30.504113,
"type": null,
"latitude": 59.8389382,
"name": "569",
"use": 61.5
},
"229": {
"district": "невский",
"vk_id": 229,
"longitude": 30.4771641,
"type": null,
"latitude": 59.9174552,
"name": "268",
"use": 60.9
},
"5563": {
"district": "невский",
"vk_id": 5563,
"longitude": 30.449758,
"type": null,
"latitude": 59.863022,
"name": "326",
"use": 61.5
},
"16865": {
"district": "невский",
"vk_id": 16865,
"longitude": 30.4488467,
"type": "частная",
"latitude": 59.8898941,
"name": "Праздник+",
"use": 57.8
},
"20249": {
"district": "невский",
"vk_id": 20249,
"longitude": 30.446566,
"type": null,
"latitude": 59.874277,
"name": "342",
"use": 60.1
},
"2578": {
"district": "невский",
"vk_id": 2578,
"longitude": 30.478391,
"type": null,
"latitude": 59.8595,
"name": "337",
"use": 60.8
},
"495": {
"district": "невский",
"vk_id": 495,
"longitude": 30.466114,
"type": "лицей",
"latitude": 59.928394,
"name": "572",
"use": 53.5
},
"566": {
"district": "невский",
"vk_id": 566,
"longitude": 30.4869965,
"type": null,
"latitude": 59.919037,
"name": "332",
"use": 57.5
},
"1797": {
"district": "невский",
"vk_id": 1797,
"longitude": 30.493457,
"type": null,
"latitude": 59.898638,
"name": "591",
"use": 59.1
},
"663": {
"district": "невский",
"vk_id": 663,
"longitude": 30.4567701,
"type": null,
"latitude": 59.919647,
"name": "667",
"use": 59.1
},
"50": {
"district": "невский",
"vk_id": 50,
"longitude": 30.478487,
"type": null,
"latitude": 59.907896,
"name": "341",
"use": 55.8
},
"1156": {
"district": "невский",
"vk_id": 1156,
"longitude": 30.4676145,
"type": "гимназия",
"latitude": 59.9298154,
"name": "513",
"use": 52.2
},
"370": {
"district": "невский",
"vk_id": 370,
"longitude": 30.4815674,
"type": null,
"latitude": 59.9044024,
"name": "20",
"use": 53.5
},
"147": {
"district": "невский",
"vk_id": 147,
"longitude": 30.426639,
"type": null,
"latitude": 59.893361,
"name": "327",
"use": 58.5
},
"59347": {
"district": "невский",
"vk_id": 59347,
"longitude": 30.4913736,
"type": "французский",
"latitude": 59.9130629,
"name": "26",
"use": 56.2
},
"2971": {
"district": "невский",
"vk_id": 2971,
"longitude": 30.5122291,
"type": null,
"latitude": 59.8365182,
"name": "574",
"use": 57.1
},
"1714": {
"district": "невский",
"vk_id": 1714,
"longitude": 30.4816146,
"type": null,
"latitude": 59.9280335,
"name": "323",
"use": 54.6
},
"614": {
"district": "невский",
"vk_id": 614,
"longitude": 30.4628778,
"type": null,
"latitude": 59.9036707,
"name": "339",
"use": 58.1
},
"1277": {
"district": "невский",
"vk_id": 1277,
"longitude": 30.448201,
"type": null,
"latitude": 59.866705,
"name": "334",
"use": 55.4
},
"4506": {
"district": "невский",
"vk_id": 4506,
"longitude": 30.467899,
"type": null,
"latitude": 59.854784,
"name": "527",
"use": 52.4
},
"54054": {
"district": "невский",
"vk_id": 54054,
"longitude": 30.468092,
"type": null,
"latitude": 59.8717949,
"name": "338",
"use": 56.7
},
"1377": {
"district": "невский",
"vk_id": 1377,
"longitude": 30.472462,
"type": "кадетские",
"latitude": 59.892486,
"name": "350",
"use": 57.1
},
"263": {
"district": "невский",
"vk_id": 263,
"longitude": 30.4643362,
"type": "немецкий",
"latitude": 59.8973941,
"name": "458",
"use": 51.3
},
"6779": {
"district": "невский",
"vk_id": 6779,
"longitude": 30.501627,
"type": null,
"latitude": 59.862274,
"name": "39",
"use": 56.5
},
"231": {
"district": "невский",
"vk_id": 231,
"longitude": 30.4825974,
"type": null,
"latitude": 59.8961593,
"name": "14",
"use": 56.6
},
"6043": {
"district": "невский",
"vk_id": 6043,
"longitude": 30.472088,
"type": null,
"latitude": 59.884168,
"name": "512",
"use": 53.4
},
"938": {
"district": "невский",
"vk_id": 938,
"longitude": 30.413115,
"type": null,
"latitude": 59.891289,
"name": "340",
"use": 48.1
},
"5948": {
"district": "невский",
"vk_id": 5948,
"longitude": 30.4806351,
"type": null,
"latitude": 59.881832,
"name": "516",
"use": 53.2
},
"1122": {
"district": "невский",
"vk_id": 1122,
"longitude": 30.455922,
"type": null,
"latitude": 59.912357,
"name": "333",
"use": 44.1
},
"1840": {
"district": "невский",
"vk_id": 1840,
"longitude": 30.5004,
"type": null,
"latitude": 59.923331,
"name": "592",
"use": 45.1
},
"3721": {
"district": "невский",
"vk_id": 3721,
"longitude": 30.4297551,
"type": null,
"latitude": 59.8794869,
"name": "336",
"use": 50.5
},
"10743": {
"district": "петроградский",
"vk_id": 10743,
"longitude": 30.2920418,
"type": "гимназия",
"latitude": 59.9550251,
"name": "610",
"use": 74
},
"20571": {
"district": "петроградский",
"vk_id": 20571,
"longitude": 30.3030181,
"type": "гимназия",
"latitude": 59.9679858,
"name": "56",
"use": 67.3
},
"14678": {
"district": "петроградский",
"vk_id": 14678,
"longitude": 30.311574,
"type": "гимназия",
"latitude": 59.971871,
"name": "67",
"use": 64.8
},
"295": {
"district": "петроградский",
"vk_id": 295,
"longitude": 30.3206885,
"type": "английский",
"latitude": 59.9610851,
"name": "80",
"use": 66.8
},
"8770": {
"district": "петроградский",
"vk_id": 8770,
"longitude": 30.292815,
"type": "химия",
"latitude": 59.9526359,
"name": "77",
"use": 64.1
},
"77834": {
"district": "петроградский",
"vk_id": 77834,
"longitude": 30.31323,
"type": "гимназия",
"latitude": 59.97084,
"name": "70",
"use": 61.8
},
"950": {
"district": "петроградский",
"vk_id": 950,
"longitude": 30.326609,
"type": "гимназия",
"latitude": 59.958569,
"name": "85",
"use": 62.2
},
"11724": {
"district": "петроградский",
"vk_id": 11724,
"longitude": 30.323986,
"type": "лицей",
"latitude": 59.961688,
"name": "82",
"use": 60.3
},
"20285": {
"district": "петроградский",
"vk_id": 20285,
"longitude": 30.304866,
"type": "частная",
"latitude": 59.964378,
"name": "Гете-Шуле",
"use": 55.7
},
"66": {
"district": "петроградский",
"vk_id": 66,
"longitude": 30.292524,
"type": null,
"latitude": 59.962497,
"name": "51",
"use": 61.2
},
"69": {
"district": "петроградский",
"vk_id": 69,
"longitude": 30.324422,
"type": "немецкий",
"latitude": 59.95844,
"name": "75",
"use": 56.7
},
"72": {
"district": "петроградский",
"vk_id": 72,
"longitude": 30.3133929,
"type": null,
"latitude": 59.9594631,
"name": "86",
"use": 55.4
},
"8224": {
"district": "петроградский",
"vk_id": 8224,
"longitude": 30.300896,
"type": "частная",
"latitude": 59.949645,
"name": "224 Шамир",
"use": 58.2
},
"705": {
"district": "петроградский",
"vk_id": 705,
"longitude": 30.307177,
"type": null,
"latitude": 59.964542,
"name": "47",
"use": 52
},
"22359": {
"district": "петроградский",
"vk_id": 22359,
"longitude": 30.306198,
"type": null,
"latitude": 59.955669,
"name": "87",
"use": 53.9
},
"785": {
"district": "петроградский",
"vk_id": 785,
"longitude": 30.310403,
"type": null,
"latitude": 59.957796,
"name": "91",
"use": 49
},
"1557": {
"district": "петроградский",
"vk_id": 1557,
"longitude": 30.3123057,
"type": null,
"latitude": 59.9607586,
"name": "84",
"use": 49.5
},
"306": {
"district": "петроградский",
"vk_id": 306,
"longitude": 30.2918728,
"type": null,
"latitude": 59.9577279,
"name": "50",
"use": 46.1
},
"1449720": {
"district": "петроградский",
"vk_id": 1449720,
"longitude": 30.2946711,
"type": null,
"latitude": 59.9665574,
"name": "55",
"use": 48.6
},
"4721": {
"district": "петроградский",
"vk_id": 4721,
"longitude": 30.2734065,
"type": null,
"latitude": 59.9624654,
"name": "173 (ЦО)",
"use": 45.7
},
"481162": {
"district": "петродворцовый",
"vk_id": 481162,
"longitude": 29.8754834,
"type": "гимназия",
"latitude": 59.8896519,
"name": "Академическая гимназия",
"use": 71
},
"1125": {
"district": "петродворцовый",
"vk_id": 1125,
"longitude": 29.7704788,
"type": "гимназия",
"latitude": 59.9061805,
"name": "426",
"use": 67.9
},
"187": {
"district": "петродворцовый",
"vk_id": 187,
"longitude": 29.8613883,
"type": "лицей",
"latitude": 59.8692132,
"name": "419",
"use": 68.4
},
"87390": {
"district": "петродворцовый",
"vk_id": 87390,
"longitude": 29.9111282,
"type": "гимназия",
"latitude": 59.8804108,
"name": "415",
"use": 66.7
},
"4470": {
"district": "петродворцовый",
"vk_id": 4470,
"longitude": 29.9079726,
"type": null,
"latitude": 59.8711797,
"name": "412",
"use": 62
},
"474658": {
"district": "петродворцовый",
"vk_id": 474658,
"longitude": 29.863274,
"type": "английский",
"latitude": 59.868752,
"name": "411",
"use": 57.8
},
"6904": {
"district": "петродворцовый",
"vk_id": 6904,
"longitude": 29.9182539,
"type": null,
"latitude": 59.8704367,
"name": "416",
"use": 62.8
},
"143": {
"district": "петродворцовый",
"vk_id": 143,
"longitude": 29.863835,
"type": null,
"latitude": 59.87012,
"name": "567",
"use": 56.4
},
"2537": {
"district": "петродворцовый",
"vk_id": 2537,
"longitude": 29.896425,
"type": null,
"latitude": 59.8748429,
"name": "529",
"use": 57.3
},
"241": {
"district": "петродворцовый",
"vk_id": 241,
"longitude": 30.0228516,
"type": null,
"latitude": 59.8531129,
"name": "421",
"use": 53.9
},
"1584": {
"district": "петродворцовый",
"vk_id": 1584,
"longitude": 29.7786386,
"type": null,
"latitude": 59.902196,
"name": "430",
"use": 54.5
},
"162": {
"district": "петродворцовый",
"vk_id": 162,
"longitude": 29.76313,
"type": null,
"latitude": 59.909637,
"name": "429",
"use": 61.3
},
"966": {
"district": "петродворцовый",
"vk_id": 966,
"longitude": 29.7722347,
"type": null,
"latitude": 59.8980334,
"name": "436",
"use": 60.2
},
"4412": {
"district": "петродворцовый",
"vk_id": 4412,
"longitude": 30.0236801,
"type": null,
"latitude": 59.8456021,
"name": "413",
"use": 53.5
},
"21454": {
"district": "петродворцовый",
"vk_id": 21454,
"longitude": 29.7787464,
"type": null,
"latitude": 59.9104345,
"name": "602",
"use": 51.3
},
"19587": {
"district": "петродворцовый",
"vk_id": 19587,
"longitude": 29.8150304,
"type": null,
"latitude": 59.901046,
"name": "417",
"use": 52.8
},
"19317": {
"district": "петродворцовый",
"vk_id": 19317,
"longitude": 29.860288,
"type": null,
"latitude": 59.8877322,
"name": "319",
"use": 51.5
},
"492": {
"district": "петродворцовый",
"vk_id": 492,
"longitude": 29.927227,
"type": null,
"latitude": 59.876925,
"name": "542",
"use": 49.9
},
"7897": {
"district": "петродворцовый",
"vk_id": 7897,
"longitude": 29.7739785,
"type": null,
"latitude": 59.8975199,
"name": "671 (ЦО)",
"use": 42.5
},
"17228": {
"district": "приморский",
"vk_id": 17228,
"longitude": 30.302323,
"type": "гимназия",
"latitude": 59.991608,
"name": "116",
"use": 72.5
},
"11301": {
"district": "приморский",
"vk_id": 11301,
"longitude": 30.2061632,
"type": "лицей",
"latitude": 60.0089649,
"name": "64",
"use": 69.9
},
"22219": {
"district": "приморский",
"vk_id": 22219,
"longitude": 30.290402,
"type": "гимназия",
"latitude": 59.988701,
"name": "631",
"use": 63.4
},
"13": {
"district": "приморский",
"vk_id": 13,
"longitude": 30.287064,
"type": "гимназия",
"latitude": 60.00204,
"name": "52",
"use": 69.3
},
"1686326": {
"district": "приморский",
"vk_id": 1686326,
"longitude": 30.2056508,
"type": "гимназия",
"latitude": 60.0015872,
"name": "540",
"use": 62
},
"1267": {
"district": "приморский",
"vk_id": 1267,
"longitude": 30.290425,
"type": "гимназия",
"latitude": 59.998246,
"name": "66",
"use": 68.9
},
"462": {
"district": "приморский",
"vk_id": 462,
"longitude": 30.2963518,
"type": "лицей",
"latitude": 60.0165989,
"name": "597",
"use": 65.4
},
"23322": {
"district": "приморский",
"vk_id": 23322,
"longitude": 30.2697372,
"type": "английский",
"latitude": 59.9838331,
"name": "46",
"use": 66.3
},
"15868": {
"district": "приморский",
"vk_id": 15868,
"longitude": 30.2163076,
"type": "гимназия",
"latitude": 60.0078043,
"name": "49",
"use": 63.3
},
"224": {
"district": "приморский",
"vk_id": 224,
"longitude": 30.317353,
"type": null,
"latitude": 59.989215,
"name": "106",
"use": 61
},
"577": {
"district": "приморский",
"vk_id": 577,
"longitude": 30.2606575,
"type": null,
"latitude": 60.0015865,
"name": "644",
"use": 63.2
},
"116": {
"district": "приморский",
"vk_id": 116,
"longitude": 30.2748448,
"type": "гимназия",
"latitude": 60.0157319,
"name": "42",
"use": 59.9
},
"19861": {
"district": "приморский",
"vk_id": 19861,
"longitude": 30.256696,
"type": "лицей",
"latitude": 60.014059,
"name": "554",
"use": 62
},
"76": {
"district": "приморский",
"vk_id": 76,
"longitude": 30.270729,
"type": "гимназия",
"latitude": 60.009217,
"name": "41",
"use": 61.7
},
"1935": {
"district": "приморский",
"vk_id": 1935,
"longitude": 30.290386,
"type": "английский",
"latitude": 60.026846,
"name": "634",
"use": 60.6
},
"4102": {
"district": "приморский",
"vk_id": 4102,
"longitude": 30.229734,
"type": null,
"latitude": 60.028693,
"name": "246",
"use": 57.1
},
"17854": {
"district": "приморский",
"vk_id": 17854,
"longitude": 30.2388554,
"type": "математика",
"latitude": 60.0003087,
"name": "598",
"use": 60.5
},
"534": {
"district": "приморский",
"vk_id": 534,
"longitude": 30.2853279,
"type": null,
"latitude": 59.9881019,
"name": "53",
"use": 62.6
},
"635": {
"district": "приморский",
"vk_id": 635,
"longitude": 30.2541912,
"type": null,
"latitude": 60.0032179,
"name": "618",
"use": 59.7
},
"189": {
"district": "приморский",
"vk_id": 189,
"longitude": 30.310289,
"type": null,
"latitude": 59.99015,
"name": "113",
"use": 67.7
},
"22564": {
"district": "приморский",
"vk_id": 22564,
"longitude": 30.2508545,
"type": "лицей",
"latitude": 60.0112741,
"name": "40",
"use": 57.4
},
"791": {
"district": "приморский",
"vk_id": 791,
"longitude": 30.2379954,
"type": null,
"latitude": 59.9866081,
"name": "640",
"use": 57
},
"18633": {
"district": "приморский",
"vk_id": 18633,
"longitude": 30.2398769,
"type": "иностранные",
"latitude": 60.0112335,
"name": "582",
"use": 60.8
},
"351": {
"district": "приморский",
"vk_id": 351,
"longitude": 30.212023,
"type": "частная",
"latitude": 59.984517,
"name": "Доверие",
"use": 63.7
},
"503": {
"district": "приморский",
"vk_id": 503,
"longitude": 30.2836872,
"type": "иностранные",
"latitude": 60.0017492,
"name": "43",
"use": 60.8
},
"21987": {
"district": "приморский",
"vk_id": 21987,
"longitude": 30.1950968,
"type": null,
"latitude": 59.9867983,
"name": "683",
"use": 58.1
},
"14915": {
"district": "приморский",
"vk_id": 14915,
"longitude": 30.2366066,
"type": "иностранные",
"latitude": 60.0167623,
"name": "583",
"use": 62.4
},
"1587": {
"district": "приморский",
"vk_id": 1587,
"longitude": 30.2883124,
"type": null,
"latitude": 60.0264086,
"name": "617",
"use": 57.6
},
"598": {
"district": "приморский",
"vk_id": 598,
"longitude": 30.2454086,
"type": null,
"latitude": 60.0138307,
"name": "38",
"use": 57.4
},
"2076": {
"district": "приморский",
"vk_id": 2076,
"longitude": 30.2152156,
"type": null,
"latitude": 60.0260462,
"name": "635",
"use": 58.2
},
"585": {
"district": "приморский",
"vk_id": 585,
"longitude": 30.2401635,
"type": null,
"latitude": 60.0204135,
"name": "580",
"use": 58.9
},
"307": {
"district": "приморский",
"vk_id": 307,
"longitude": 30.2589769,
"type": "английский",
"latitude": 60.012658,
"name": "555",
"use": 58
},
"25797": {
"district": "приморский",
"vk_id": 25797,
"longitude": 30.266288,
"type": "математика",
"latitude": 60.011548,
"name": "45",
"use": 61.7
},
"682": {
"district": "приморский",
"vk_id": 682,
"longitude": 30.2549586,
"type": null,
"latitude": 60.0234976,
"name": "595",
"use": 58.3
},
"3851": {
"district": "приморский",
"vk_id": 3851,
"longitude": 30.2994957,
"type": null,
"latitude": 60.0268729,
"name": "253",
"use": 59.3
},
"19524": {
"district": "приморский",
"vk_id": 19524,
"longitude": 30.241052,
"type": null,
"latitude": 60.01823,
"name": "579",
"use": 54.2
},
"4311": {
"district": "приморский",
"vk_id": 4311,
"longitude": 30.246885,
"type": null,
"latitude": 60.025094,
"name": "688",
"use": 57.4
},
"16554": {
"district": "приморский",
"vk_id": 16554,
"longitude": 30.262183,
"type": "иностранные",
"latitude": 59.98662,
"name": "44",
"use": 52.9
},
"18615": {
"district": "приморский",
"vk_id": 18615,
"longitude": 30.2021308,
"type": null,
"latitude": 60.0053811,
"name": "320",
"use": 57.3
},
"1652": {
"district": "приморский",
"vk_id": 1652,
"longitude": 30.211696,
"type": "английский",
"latitude": 59.990196,
"name": "600",
"use": 56.6
},
"16688": {
"district": "приморский",
"vk_id": 16688,
"longitude": 30.2167622,
"type": null,
"latitude": 60.0041234,
"name": "655",
"use": 54.1
},
"20003": {
"district": "приморский",
"vk_id": 20003,
"longitude": 30.286442,
"type": null,
"latitude": 60.008464,
"name": "57",
"use": 52.3
},
"21988": {
"district": "приморский",
"vk_id": 21988,
"longitude": 30.2093826,
"type": null,
"latitude": 59.9854187,
"name": "601",
"use": 56.2
},
"1102": {
"district": "приморский",
"vk_id": 1102,
"longitude": 30.2320898,
"type": null,
"latitude": 60.0206665,
"name": "581",
"use": 54.4
},
"1005": {
"district": "приморский",
"vk_id": 1005,
"longitude": 30.218395,
"type": null,
"latitude": 59.988471,
"name": "599",
"use": 51.9
},
"22612": {
"district": "приморский",
"vk_id": 22612,
"longitude": 30.2144257,
"type": null,
"latitude": 59.9974854,
"name": "630",
"use": 51
},
"487": {
"district": "приморский",
"vk_id": 487,
"longitude": 30.2281812,
"type": null,
"latitude": 60.0062523,
"name": "661",
"use": 49.8
},
"2120": {
"district": "приморский",
"vk_id": 2120,
"longitude": 30.243772,
"type": null,
"latitude": 60.024819,
"name": "578",
"use": 49.4
},
"173": {
"district": "приморский",
"vk_id": 173,
"longitude": 30.28782,
"type": null,
"latitude": 60.011062,
"name": "58",
"use": 49.2
},
"12354": {
"district": "приморский",
"vk_id": 12354,
"longitude": 30.240881,
"type": "францзуский",
"latitude": 60.00564,
"name": "596",
"use": 49.6
},
"901": {
"district": "приморский",
"vk_id": 901,
"longitude": 30.006789,
"type": null,
"latitude": 60.009403,
"name": "438",
"use": 47.8
},
"509": {
"district": "приморский",
"vk_id": 509,
"longitude": 30.286624,
"type": null,
"latitude": 60.009831,
"name": "48",
"use": 47.9
},
"1623": {
"district": "приморский",
"vk_id": 1623,
"longitude": 30.313379,
"type": null,
"latitude": 59.995249,
"name": "109",
"use": 44.7
},
"999": {
"district": "приморский",
"vk_id": 999,
"longitude": 30.13972,
"type": null,
"latitude": 60.000623,
"name": "440",
"use": 42.4
},
"10204": {
"district": "пушкинский",
"vk_id": 10204,
"longitude": 30.4389054,
"type": "частная",
"latitude": 59.6779682,
"name": "Школа имени горчакова",
"use": 72.7
},
"3219": {
"district": "пушкинский",
"vk_id": 3219,
"longitude": 30.4121842,
"type": "естественные науки",
"latitude": 59.7304981,
"name": "530",
"use": 67.4
},
"1198": {
"district": "пушкинский",
"vk_id": 1198,
"longitude": 30.4117115,
"type": "лицей",
"latitude": 59.7072634,
"name": "410",
"use": 63.4
},
"151": {
"district": "пушкинский",
"vk_id": 151,
"longitude": 30.4009375,
"type": "гимназия",
"latitude": 59.7222799,
"name": "406",
"use": 61.6
},
"67272": {
"district": "пушкинский",
"vk_id": 67272,
"longitude": 30.3989896,
"type": "английский",
"latitude": 59.7222945,
"name": "606",
"use": 57.6
},
"6717": {
"district": "пушкинский",
"vk_id": 6717,
"longitude": 30.3826476,
"type": null,
"latitude": 59.704667,
"name": "335",
"use": 61.5
},
"1895": {
"district": "пушкинский",
"vk_id": 1895,
"longitude": 30.462106,
"type": null,
"latitude": 59.727083,
"name": "297",
"use": 60.1
},
"110": {
"district": "пушкинский",
"vk_id": 110,
"longitude": 30.4652435,
"type": null,
"latitude": 59.7336276,
"name": "511",
"use": 59
},
"1604": {
"district": "пушкинский",
"vk_id": 1604,
"longitude": 30.4184803,
"type": "лицей",
"latitude": 59.7338042,
"name": "408",
"use": 60.4
},
"74": {
"district": "пушкинский",
"vk_id": 74,
"longitude": 30.423353,
"type": null,
"latitude": 59.717295,
"name": "403",
"use": 56.1
},
"1416": {
"district": "пушкинский",
"vk_id": 1416,
"longitude": 30.4158614,
"type": null,
"latitude": 59.7175241,
"name": "500",
"use": 58.7
},
"3590": {
"district": "пушкинский",
"vk_id": 3590,
"longitude": 30.4151183,
"type": "искусство",
"latitude": 59.7368206,
"name": "477",
"use": 58.8
},
"14991": {
"district": "пушкинский",
"vk_id": 14991,
"longitude": 30.4323622,
"type": null,
"latitude": 59.6865199,
"name": "638",
"use": 60.1
},
"5665": {
"district": "пушкинский",
"vk_id": 5665,
"longitude": 30.3754971,
"type": null,
"latitude": 59.7068219,
"name": "409",
"use": 56
},
"4460": {
"district": "пушкинский",
"vk_id": 4460,
"longitude": 30.379094,
"type": null,
"latitude": 59.808974,
"name": "459",
"use": 56.9
},
"20113": {
"district": "пушкинский",
"vk_id": 20113,
"longitude": 30.4295986,
"type": null,
"latitude": 59.6812251,
"name": "464",
"use": 51.6
},
"4701": {
"district": "пушкинский",
"vk_id": 4701,
"longitude": 30.4005479,
"type": null,
"latitude": 59.7358545,
"name": "552",
"use": 50.1
},
"9460": {
"district": "пушкинский",
"vk_id": 9460,
"longitude": 30.4101299,
"type": null,
"latitude": 59.739001,
"name": "407",
"use": 53.6
},
"8798": {
"district": "пушкинский",
"vk_id": 8798,
"longitude": 30.4585279,
"type": null,
"latitude": 59.6797211,
"name": "315",
"use": 51.6
},
"639680": {
"district": "пушкинский",
"vk_id": 639680,
"longitude": 30.349281,
"type": null,
"latitude": 59.732192,
"name": "462",
"use": 49.2
},
"312": {
"district": "фрунзенский",
"vk_id": 312,
"longitude": 30.383474,
"type": "математика",
"latitude": 59.859649,
"name": "292",
"use": 73.7
},
"21088": {
"district": "фрунзенский",
"vk_id": 21088,
"longitude": 30.408789,
"type": "английский",
"latitude": 59.8741935,
"name": "316",
"use": 68.5
},
"446": {
"district": "фрунзенский",
"vk_id": 446,
"longitude": 30.368736,
"type": "английский",
"latitude": 59.86245,
"name": "213",
"use": 63.3
},
"619": {
"district": "фрунзенский",
"vk_id": 619,
"longitude": 30.402511,
"type": null,
"latitude": 59.831384,
"name": "365",
"use": 61.7
},
"866": {
"district": "фрунзенский",
"vk_id": 866,
"longitude": 30.3915812,
"type": "гимназия",
"latitude": 59.8402643,
"name": "587",
"use": 62.6
},
"17691": {
"district": "фрунзенский",
"vk_id": 17691,
"longitude": 30.377656,
"type": "испанский",
"latitude": 59.8493028,
"name": "205",
"use": 64.2
},
"5402": {
"district": "фрунзенский",
"vk_id": 5402,
"longitude": 30.3901492,
"type": "химия и биология",
"latitude": 59.8709997,
"name": "230",
"use": 64.6
},
"2082": {
"district": "фрунзенский",
"vk_id": 2082,
"longitude": 30.393131,
"type": "гимназия",
"latitude": 59.846964,
"name": "363",
"use": 60.5
},
"658": {
"district": "фрунзенский",
"vk_id": 658,
"longitude": 30.397574,
"type": "гимназия",
"latitude": 59.862307,
"name": "295",
"use": 63.8
},
"67": {
"district": "фрунзенский",
"vk_id": 67,
"longitude": 30.3892136,
"type": "итальянский",
"latitude": 59.8523213,
"name": "318",
"use": 59.1
},
"965": {
"district": "фрунзенский",
"vk_id": 965,
"longitude": 30.426957,
"type": "гимназия",
"latitude": 59.832583,
"name": "441",
"use": 59.7
},
"137": {
"district": "фрунзенский",
"vk_id": 137,
"longitude": 30.3860647,
"type": "английский",
"latitude": 59.833445,
"name": "553",
"use": 62.8
},
"114": {
"district": "фрунзенский",
"vk_id": 114,
"longitude": 30.3973545,
"type": "немецкий",
"latitude": 59.8698426,
"name": "303",
"use": 61.9
},
"3550": {
"district": "фрунзенский",
"vk_id": 3550,
"longitude": 30.4067107,
"type": "гимназия",
"latitude": 59.8674264,
"name": "227",
"use": 58.5
},
"1713": {
"district": "фрунзенский",
"vk_id": 1713,
"longitude": 30.371091,
"type": "лицей",
"latitude": 59.857036,
"name": "299",
"use": 60.3
},
"4891": {
"district": "фрунзенский",
"vk_id": 4891,
"longitude": 30.3675024,
"type": "физика",
"latitude": 59.8647863,
"name": "311",
"use": 59.3
},
"6866": {
"district": "фрунзенский",
"vk_id": 6866,
"longitude": 30.3802979,
"type": "лицей",
"latitude": 59.8635868,
"name": "226",
"use": 58
},
"11159": {
"district": "фрунзенский",
"vk_id": 11159,
"longitude": 30.4194663,
"type": "английский",
"latitude": 59.8406788,
"name": "368",
"use": 60.7
},
"345": {
"district": "фрунзенский",
"vk_id": 345,
"longitude": 30.380037,
"type": null,
"latitude": 59.8769,
"name": "236",
"use": 60.6
},
"535": {
"district": "фрунзенский",
"vk_id": 535,
"longitude": 30.3948518,
"type": null,
"latitude": 59.8649699,
"name": "201",
"use": 54
},
"419": {
"district": "фрунзенский",
"vk_id": 419,
"longitude": 30.379915,
"type": null,
"latitude": 59.850785,
"name": "298",
"use": 56
},
"81": {
"district": "фрунзенский",
"vk_id": 81,
"longitude": 30.3595387,
"type": null,
"latitude": 59.8895691,
"name": "360",
"use": 56.9
},
"3482": {
"district": "фрунзенский",
"vk_id": 3482,
"longitude": 30.41283,
"type": null,
"latitude": 59.848174,
"name": "448",
"use": 55.3
},
"2075": {
"district": "фрунзенский",
"vk_id": 2075,
"longitude": 30.394077,
"type": null,
"latitude": 59.872083,
"name": "296",
"use": 54.7
},
"923": {
"district": "фрунзенский",
"vk_id": 923,
"longitude": 30.394229,
"type": "французский",
"latitude": 59.826558,
"name": "312",
"use": 60
},
"4067": {
"district": "фрунзенский",
"vk_id": 4067,
"longitude": 30.4086523,
"type": null,
"latitude": 59.8318291,
"name": "218",
"use": 52.6
},
"292": {
"district": "фрунзенский",
"vk_id": 292,
"longitude": 30.427993,
"type": null,
"latitude": 59.8312655,
"name": "603",
"use": 55.7
},
"662": {
"district": "фрунзенский",
"vk_id": 662,
"longitude": 30.38148,
"type": null,
"latitude": 59.838017,
"name": "444",
"use": 60.7
},
"1004": {
"district": "фрунзенский",
"vk_id": 1004,
"longitude": 30.4018351,
"type": null,
"latitude": 59.8383811,
"name": "367",
"use": 55
},
"486": {
"district": "фрунзенский",
"vk_id": 486,
"longitude": 30.3717218,
"type": null,
"latitude": 59.8500977,
"name": "325",
"use": 59.6
},
"62323": {
"district": "фрунзенский",
"vk_id": 62323,
"longitude": 30.3992298,
"type": null,
"latitude": 59.8409045,
"name": "302",
"use": 55.6
},
"2421": {
"district": "фрунзенский",
"vk_id": 2421,
"longitude": 30.3505472,
"type": null,
"latitude": 59.9067317,
"name": "359",
"use": 56.7
},
"22057": {
"district": "фрунзенский",
"vk_id": 22057,
"longitude": 30.4148851,
"type": "частная",
"latitude": 59.8639538,
"name": "Эпиграф",
"use": 55.9
},
"2905": {
"district": "фрунзенский",
"vk_id": 2905,
"longitude": 30.390275,
"type": null,
"latitude": 59.87811,
"name": "215",
"use": 54.5
},
"699": {
"district": "фрунзенский",
"vk_id": 699,
"longitude": 30.4113928,
"type": null,
"latitude": 59.8290481,
"name": "313",
"use": 57.1
},
"7434": {
"district": "фрунзенский",
"vk_id": 7434,
"longitude": 30.389665,
"type": null,
"latitude": 59.831016,
"name": "212",
"use": 52.3
},
"16037": {
"district": "фрунзенский",
"vk_id": 16037,
"longitude": 30.4117847,
"type": "музыка",
"latitude": 59.8490398,
"name": "8",
"use": 51.7
},
"4306": {
"district": "фрунзенский",
"vk_id": 4306,
"longitude": 30.371834,
"type": null,
"latitude": 59.873556,
"name": "305",
"use": 54
},
"13544": {
"district": "фрунзенский",
"vk_id": 13544,
"longitude": 30.4037936,
"type": null,
"latitude": 59.8254023,
"name": "314",
"use": 53.5
},
"2052": {
"district": "фрунзенский",
"vk_id": 2052,
"longitude": 30.39663,
"type": null,
"latitude": 59.83565,
"name": "301",
"use": 46.1
},
"3657": {
"district": "фрунзенский",
"vk_id": 3657,
"longitude": 30.362725,
"type": null,
"latitude": 59.870079,
"name": "202",
"use": 47.8
},
"4432": {
"district": "фрунзенский",
"vk_id": 4432,
"longitude": 30.385264,
"type": "кадетские",
"latitude": 59.844968,
"name": "364",
"use": 51
},
"5334": {
"district": "фрунзенский",
"vk_id": 5334,
"longitude": 30.3892145,
"type": null,
"latitude": 59.8554109,
"name": "310",
"use": 48.9
},
"4552": {
"district": "фрунзенский",
"vk_id": 4552,
"longitude": 30.379066,
"type": null,
"latitude": 59.841304,
"name": "443",
"use": 44.3
},
"1622": {
"district": "фрунзенский",
"vk_id": 1622,
"longitude": 30.423048,
"type": null,
"latitude": 59.836844,
"name": "322",
"use": 53.3
}
}